Time,Alpha_L1i,Alpha_L1o,Alpha_L2i,Alpha_L2o,Alpha_L3i,Alpha_L3o,Alpha_L4i,Alpha_L4o,Alpha_R1i,Alpha_R1o,Alpha_R2i,Alpha_R2o,Alpha_R3i,Alpha_R3o,Alpha_R4i,Alpha_R4o,AVz,AVz_2,Ay,Ay_2,Bk_Stat,Fx_L1,Fx_L2,Fx_R1,Fx_R2,Fy_L1,Fy_L2,Fy_R1,Fy_R2,Fz_L1,Fz_L1i,Fz_L2,Fz_L2i,Fz_L2o,Fz_R1,Fz_R1i,Fz_R2,Fz_R2i,Fz_R2o,GearStat,Lat_Targ,Lat_Veh,Pitch,PitchGL1,PitchGL2,PitchGR1,PitchGR2,PitchO1,Pitch_2,Pitch_A2,Pitch_A3,Pitch_A4,Roll,RollGL1,RollGL2,RollGR1,RollGR2,RollO_1,Roll_2,Roll_A2,Roll_A3,Roll_A4,Roll_E,Roll_E_2,Roll_L1,Roll_L2,Roll_L3,Roll_L4,Roll_R1,Roll_R2,Roll_R3,Roll_R4,Rot_L1,Rot_L2,Rot_L3,Rot_L4,Rot_R1,Rot_R2,Rot_R3,Rot_R4,Station,Steer_L1,Steer_L2,Steer_R1,Steer_R2,Steer_SW,VisO_1,Vx,VxTarget,Vxz_Fwd,Vx_2,Xctc_L1o,Xctc_L2o,Xctc_R1o,Xctc_R2o,Xo,Xo_2,X_A2,X_A3,X_A4,X_L1,X_L2,X_L3,X_L4,X_Obj_1,X_R1,X_R2,X_R3,X_R4,Yaw,YawO_1,Yaw_2,Yaw_L1,Yaw_L2,Yaw_L3,Yaw_L4,Yaw_R1,Yaw_R2,Yaw_R3,Yaw_R4,Yctc_L1o,Yctc_L2o,Yctc_R1o,Yctc_R2o,Yo,Yo_2,Y_A2,Y_A3,Y_A4,Y_L1,Y_L2,Y_L3,Y_L4,Y_Obj_1,Y_R1,Y_R2,Y_R3,Y_R4,Zgnd_L1o,Zgnd_L2o,Zgnd_R1o,Zgnd_R2o,Zo,Zo_2,Z_A2,Z_A3,Z_A4,Z_L1,Z_L2,Z_L3,Z_L4,Z_Obj_1,Z_R1,Z_R2,Z_R3,Z_R4
            0, 2.25947891565e-17,             0,             0,             0,             0,             0,             0,             0, -1.25895599623e-14,             0,             0,             0,             0,             0,             0,             0,             0,             0, -5.49179296594e-20,             0,             0, -1.99435589571e-11,             0, -1.99425354702e-11,             0, 2.12981921283e-19,             0, -1.27797543483e-19,             0, 9909.79003906, 9909.79003906, 18063.2460938, 9031.62304688, 9031.62304688, 9909.79003906, 9909.79003906, 18063.2460938, 9031.62304688, 9031.62304688,             1,             0,             0, -0.577863633633,             0,             0,             0,             0,             0, 0.154330611229, -0.577863633633, 0.154330611229, 0.154330611229,             0,             0,             0,             0,             0,             0,             0,             0,             0,             0,             0,             0, -2.2402210922e-15,             0,             0,             0, 1.34428977993e-15,             0,             0,             0, -0.00160517671611, -0.00160517671611, 0.000428696133895, 0.000428696133895, -0.00160517671611, -0.00160517671611, 0.000428696133895, 0.000428696133895,             0, 2.25400894833e-32,             0, 1.2575361996e-14,             0,             0,             1,            70,            70,            70,            70, -0.0040341806598, -3.37191748619, -0.0040341806598, -3.37191748619,             0, -3.40387105942, -3.37191748619, -9.29783630371, -10.1128330231, -0.0040341806598, -3.37191748619, -9.29783630371, -10.1128330231, 11.6666669846, -0.0040341806598, -3.37191748619, -9.29783630371, -10.1128330231,             0,             0,             0, 3.1804071231e-15,             0,             0,             0, 1.29539679358e-14,             0,             0,             0,         0.875, 1.09500002861,        -0.875, -1.09500002861,             0,             0,             0, 5.31699984742e-21, 5.31699984742e-21,         0.875, 0.949999988079, 1.20000004768, 1.20000004768,             0,        -0.875, -0.949999988079, -1.20000004768, -1.20000004768,             0,             0,             0,             0, -0.0177202746272, -0.0469619296491, 0.384008705616, 0.345168501139, 0.347363770008, 0.382259368896, 0.384008705616, 0.345168501139, 0.347363770008,             0, 0.382259368896, 0.384008705616, 0.345168501139, 0.347363770008
        0.025, -0.000863344816025,             0, 2.40225770091e-16, 2.40225770091e-16, -3.37867281328e-16,             0, 4.90893180021e-17,             0, 0.000863344816025,             0, 2.40225770091e-16, 2.40225770091e-16, -3.37867281328e-16,             0, 4.90893180021e-17,             0, 8.26554354111e-18, -9.81415981651e-17, 6.48290604174e-18, -2.82272282106e-18,             0, -72.2482070923, -181.309448242, -72.2482070923, -181.309448242, 0.43699836731, -4.14403998313e-13, -0.43699836731, -4.14403998313e-13, 9891.05175781, 9891.05175781, 18587.7070312, 9293.85351562, 9293.85351562, 9891.05175781, 9891.05175781, 18587.7070312, 9293.85351562, 9293.85351562,             1,             0, 1.56977813006e-19, -0.592837333679,             0,             0,             0,             0,             0, 0.137775093317, -0.592837333679, 0.137775093317, 0.137775093317, 8.27352500684e-18,             0,             0,             0,             0,             0, -4.56263850975e-18, 2.98273520302e-16, -1.16431454864e-16, -2.26225356893e-18, 8.27396754847e-18, -4.56265174464e-18, -0.000959682220127, 2.98257559025e-16, -1.16431110757e-16, -2.26224695149e-18, 0.000959682220127, 2.98257559025e-16, -1.16431110757e-16, -2.26224695149e-18, 0.195153072476, 0.195180699229, 0.221382558346, 0.221384942532, 0.195153072476, 0.195180699229, 0.221382558346, 0.221384942532, 0.48619633913, -0.000125777951325,             0, 0.000125777951325,             0, -1.16371581877e-17,             1, 69.9727783203,            70, 69.9647064209, 70.0012741089, 0.482059180737, -2.88574409485, 0.482059180737, -2.88574409485, 0.48619633913, -2.91763424873, -2.88574409485, -8.81171035767, -9.62670993805, 0.482059180737, -2.88574409485, -8.81171035767, -9.62670993805, 12.1469812393, 0.482059180737, -2.88574409485, -8.81171035767, -9.62670993805, -8.44019748003e-20,             0, -6.90547642755e-19, -0.000135714828502, 3.0017681326e-18, -4.10573475185e-19, -6.85107792854e-19, 0.000135714828502, 3.0017681326e-18, -4.10573475185e-19, -6.85107792854e-19, 0.874995291233, 1.09500002861, -0.874995291233, -1.09500002861, 1.56977813006e-19, -8.18096941581e-20, -3.15130509249e-21, -3.32358068197e-19, 4.17103465123e-20, 0.87500166893, 0.949999988079, 1.20000004768, 1.20000004768,             0, -0.87500166893, -0.949999988079, -1.20000004768, -1.20000004768,             0,             0,             0,             0, -0.0176405273378, -0.0476309433579, 0.383486360312, 0.343735069036, 0.344837248325, 0.382296711206, 0.383486360312, 0.343735069036, 0.344837248325,             0, 0.382296711206, 0.383486360312, 0.343735069036, 0.344837248325
         0.05, -0.00191413937137,             0, 4.18354760726e-16, 4.18354760726e-16, -2.85876799174e-19,             0, -7.69695596622e-17,             0, 0.00191413937137,             0, 4.18354760726e-16, 4.18354760726e-16, -2.85876799174e-19,             0, -7.69695596622e-17,             0, 2.00201729563e-16, -3.24744524131e-17, 4.88248286556e-17, -1.82299957056e-18,             0, -74.117225647, -176.399932861, -74.117225647, -176.399932861, 1.43641352654, 1.5884967224e-13, -1.43641352654, 1.5884967224e-13, 9850.29492188, 9850.29492188,  19854.140625,  9927.0703125,  9927.0703125, 9850.29492188, 9850.29492188,  19854.140625,  9927.0703125,  9927.0703125,             1,             0, 3.85282763998e-19, -0.638148784637,             0,             0,             0,             0,             0, 0.0962752476335, -0.638148784637, 0.0962752476335, 0.0962752476335, 7.48701603783e-18,             0,             0,             0,             0,             0, -2.3706177447e-17, -1.24079394754e-16, -1.16480437191e-16, -1.04356113463e-17, 7.48748008615e-18, -2.37062105342e-17, -0.00389601173811, -1.24071692048e-16, -1.16480278372e-16, -1.0435596457e-17, 0.00389601173811, -1.24071692048e-16, -1.16480278372e-16, -1.0435596457e-17, 0.39190351963, 0.392052084208, 0.442318588495, 0.442320913076, 0.39190351963, 0.392052084208, 0.442318588495, 0.442320913076, 0.972645521164, -0.000472887099022,             0, 0.000472887099022,             0, -8.25716039648e-17,             1, 69.9658279419,            70, 69.9489212036, 69.9978485107, 0.968192577362, -2.39926457405, 0.968192577362, -2.39926457405, 0.972645521164, -2.43122768402, -2.39926457405, -8.32558345795,  -9.140583992, 0.968192577362, -2.39926457405, -8.32558345795,  -9.140583992, 12.6307992935, 0.968192577362, -2.39926457405, -8.32558345795,  -9.140583992, 2.98048601621e-18,             0, -2.85386513715e-18, -0.000516311207321, 1.59854349096e-18, -2.65814076254e-18, -2.83632994214e-18, 0.000516311207321, 1.59854349096e-18, -2.65814076254e-18, -2.83632994214e-18, 0.874980807304, 1.09500002861, -0.874980807304, -1.09500002861, 3.85282763998e-19, -3.87403138101e-19, 2.01581937801e-19, -2.25597175257e-19, 1.50534773968e-19, 0.87500679493, 0.949999988079, 1.20000004768, 1.20000004768,             0, -0.87500679493, -0.949999988079, -1.20000004768, -1.20000004768,             0,             0,             0,             0, -0.0174293685704, -0.0501022078097, 0.382224947214, 0.338394522667, 0.338507473469, 0.382377892733, 0.382224947214, 0.338394522667, 0.338507473469,             0, 0.382377892733, 0.382224947214, 0.338394522667, 0.338507473469
        0.075, -0.0023751235567,             0, 7.3369054214e-17, 7.3369054214e-17, 3.16056480721e-17,             0, 2.0841634773e-16,             0, 0.0023751235567,             0, 7.3369054214e-17, 7.3369054214e-17, 3.16056480721e-17,             0, 2.0841634773e-16,             0, 6.79219838535e-16, -8.6969445349e-17, -1.79158089343e-17, 8.105602793e-19,             0, -82.5650177002, -225.269226074, -82.5650177002, -225.269226074,  2.7142996788, -7.96406601149e-14, -2.7142996788, -7.96406601149e-14, 9821.26464844, 9821.26464844, 21851.9316406, 10925.9658203, 10925.9658203, 9821.26464844, 9821.26464844, 21851.9316406, 10925.9658203, 10925.9658203,             1,             0, 9.88963078298e-19, -0.724204957485,             0,             0,             0,             0,             0, 0.0461423248053, -0.724204957485, 0.0461423248053, 0.0461423248053, 9.68658606674e-18,             0,             0,             0,             0,             0, -3.65576673795e-17, 3.20932147949e-17, -9.88975072417e-18, 3.69182982743e-17, 9.68736030779e-18, -3.65576806144e-17, -0.00921057537198, 3.20906538437e-17, -9.88974824263e-18, 3.69182883481e-17, 0.00921057537198, 3.20906538437e-17, -9.88974824263e-18, 3.69182883481e-17, 0.588759183884, 0.589204847813, 0.663228809834, 0.663231015205, 0.588759183884, 0.589204847813, 0.663228809834, 0.663231015205, 1.45968437195, -0.00110220606439,             0, 0.00110220606439,             0, -3.04123209245e-16,             1, 69.9979629517,            70, 69.9664916992, 69.9863510132, 1.45463180542, -1.91202104092, 1.45463180542, -1.91202104092, 1.45968437195, -1.94481372833, -1.91202104092, -7.83950471878, -8.65450572968, 1.45463180542, -1.91202104092, -7.83950471878, -8.65450572968, 13.1207666397, 1.45463180542, -1.91202104092, -7.83950471878, -8.65450572968, 1.30925237456e-17,             0, -5.32181577696e-18, -0.00121871975716, 1.3498164019e-17, -5.31385126843e-18, -5.35154754331e-18, 0.00121871975716, 1.3498164019e-17, -5.31385126843e-18, -5.35154754331e-18, 0.874954462051, 1.09500002861, -0.874954462051, -1.09500002861, 9.88963078298e-19, -6.7543944736e-19, 1.2953162424e-19, 2.03838512361e-19, 4.26394054032e-19, 0.87501591444, 0.949999988079, 1.20000004768, 1.20000004768,             0, -0.87501591444, -0.949999988079, -1.20000004768, -1.20000004768,             0,             0,             0,             0, -0.0171348452568, -0.0549479611218, 0.380235135555, 0.330964356661, 0.330455005169, 0.382435709238, 0.380235135555, 0.330964356661, 0.330455005169,             0, 0.382435709238, 0.380235135555, 0.330964356661, 0.330455005169
          0.1, -0.00173128116876,             0, -2.52697139099e-16, -2.52697139099e-16, 3.97056388582e-17,             0, 1.32173089041e-17,             0, 0.00173128116876,             0, -2.52697139099e-16, -2.52697139099e-16, 3.97056388582e-17,             0, 1.32173089041e-17,             0, 1.08565695157e-15, -4.21861318309e-17, -9.058613045e-17, 6.33381542173e-18,             0, -91.4701461792, -278.694610596, -91.4701461792, -278.694610596, 3.42133450508, -4.84221983257e-13, -3.42133450508, -4.84221983257e-13, 9806.35253906, 9806.35253906, 24135.3417969, 12067.6708984, 12067.6708984, 9806.35253906, 9806.35253906, 24135.3417969, 12067.6708984, 12067.6708984,             1,             0, 2.43408069565e-18, -0.863276183605,             0,             0,             0,             0,             0, 0.00927902851254, -0.863276183605, 0.00927902851254, 0.00927902851254, 4.84642176132e-17,             0,             0,             0,             0,             0, 6.92809464742e-19, 4.42670323784e-16, 9.37629010489e-17, 1.02572460599e-16, 4.84697200186e-17, 6.92809516441e-19, -0.0156732369214, 4.42620057673e-16, 9.37628944315e-17, 1.02572460599e-16, 0.0156732369214, 4.42620057673e-16, 9.37628944315e-17, 1.02572460599e-16, 0.785853624344, 0.786918401718, 0.884081125259, 0.884082913399, 0.785853624344, 0.786918401718, 0.884081125259, 0.884082913399, 1.94773471355, -0.0018749514129,             0, 0.0018749514129,             0, -7.84873963816e-16,             1, 70.0730209351,            70, 70.0205612183, 69.9659118652, 1.94171464443, -1.42329764366, 1.94171464443, -1.42329764366, 1.94773471355, -1.45860660076, -1.42329764366, -7.35354423523, -8.16854381561, 1.94171464443, -1.42329764366, -7.35354423523, -8.16854381561, 13.6178283691, 1.94171464443, -1.42329764366, -7.35354423523, -8.16854381561, 3.43789332031e-17,             0, -6.66102656536e-18, -0.00211133086123, 4.10484011466e-17, -6.67621153345e-18, -6.67763842001e-18, 0.00211133086123, 4.10484011466e-17, -6.67621153345e-18, -6.67763842001e-18, 0.874922156334, 1.09500002861, -0.874922156334, -1.09500002861, 2.43408069565e-18, -5.40747870459e-19, -1.6390059095e-19, 4.28940452e-19, 5.52037283158e-19, 0.875026762486, 0.949999988079, 1.20000004768, 1.20000004768,             0, -0.875026762486, -0.949999988079, -1.20000004768, -1.20000004768,             0,             0,             0,             0, -0.0168116744608, -0.062921769917, 0.377960801125, 0.323384582996, 0.322682350874, 0.382465422153, 0.377960801125, 0.323384582996, 0.322682350874,             0, 0.382465422153, 0.377960801125, 0.323384582996, 0.322682350874
        0.125, -0.000703107565641,             0, 1.69579450347e-16, 1.69579450347e-16, -1.41288642552e-16,             0, -3.85870491333e-16,             0, 0.000703107565641,             0, 1.69579450347e-16, 1.69579450347e-16, -1.41288642552e-16,             0, -3.85870491333e-16,             0, 9.89506006565e-16, -1.20000228836e-18, 1.81806159182e-16, -3.55321619433e-17,             0, -97.1111450195, -298.295074463, -97.1111450195, -298.295074463, 3.28324079514, -4.76895649706e-13, -3.28324079514, -4.76895649706e-13, 9794.94042969, 9794.94042969, 26557.6230469, 13278.8115234, 13278.8115234, 9794.94042969, 9794.94042969, 26557.6230469, 13278.8115234, 13278.8115234,             1,             0, 3.78988472714e-18, -1.06583940983,             0,             0,             0,             0,             0, 0.00673649460077, -1.06583940983, 0.00673649460077, 0.00673649460077, 8.07308954913e-17,             0,             0,             0,             0,             0, 7.02301618697e-17, 5.44539005884e-16, 5.08525328871e-17, 1.74506641001e-16, 8.07448649174e-17, 7.02301618697e-17, -0.0221316665411, 5.44444826408e-16, 5.08525328871e-17, 1.74506641001e-16, 0.0221316665411, 5.44444826408e-16, 5.08525328871e-17, 1.74506641001e-16, 0.983311295509, 0.985438406467, 1.10485494137, 1.10485613346, 0.983311295509, 0.985438406467, 1.10485494137, 1.10485613346, 2.43717002869, -0.00265846843831,             0, 0.00265846843831,             0, -1.31100159686e-15,             1, 70.1787719727,            70, 70.1042175293,  69.938949585, 2.42974233627, -0.932523787022, 2.42974233627, -0.932523787022, 2.43717002869, -0.972804784775, -0.932523787022, -6.86775875092, -7.68275880814, 2.42974233627, -0.932523787022, -6.86775875092, -7.68275880814, 14.1212062836, 2.42974233627, -0.932523787022, -6.86775875092, -7.68275880814, 5.88007889704e-17,             0, -3.85560215885e-18, -0.0030706783291, 6.89299398259e-17, -3.86158102032e-18, -3.87611954677e-18, 0.0030706783291, 6.89299398259e-17, -3.86158102032e-18, -3.87611954677e-18, 0.874889671803, 1.09500002861, -0.874889671803, -1.09500002861, 3.78988472714e-18, 1.15900178883e-19, -6.09182745584e-19, -1.83127948694e-20, 4.03387550409e-19, 0.875037431717, 0.949999988079, 1.20000004768, 1.20000004768,             0, -0.875037431717, -0.949999988079, -1.20000004768, -1.20000004768,             0,             0,             0,             0, -0.016484213993, -0.0746739059687, 0.375548183918, 0.316786289215, 0.316353112459, 0.382488131523, 0.375548183918, 0.316786289215, 0.316353112459,             0, 0.382488131523, 0.375548183918, 0.316786289215, 0.316353112459
         0.15, 3.66884305549e-05,             0, 2.06090742672e-17, 2.06090742672e-17, -7.92678975378e-17,             0, 7.10873883291e-16,             0, -3.66884305549e-05,             0, 2.06090742672e-17, 2.06090742672e-17, -7.92678975378e-17,             0, 7.10873883291e-16,             0, 1.23411546333e-15, 3.90647465988e-16, 6.22639774738e-18, 1.41568208506e-18,             0, -96.8880386353, -303.764434814, -96.8880386353, -303.764434814, 2.74795007706, 1.12810000057e-12, -2.74795007706, 1.12810000057e-12, 9777.77539062, 9777.77539062, 29660.2519531, 14830.1259766, 14830.1259766, 9777.77539062, 9777.77539062, 29660.2519531, 14830.1259766, 14830.1259766,             1,             0, 5.10161740277e-18, -1.33719348907,             0,             0,             0,             0,             0, 0.0536401979625, -1.33719348907, 0.0536401979625, 0.0536401979625, 9.37179884504e-17,             0,             0,             0,             0,             0, 1.26419812961e-16, -3.42708418728e-16, 2.96722285338e-16, 1.92964137431e-16, 9.37435119354e-17, 1.26419865901e-16, -0.0286908205599, -3.42615086285e-16, 2.96722152989e-16, 1.92964044787e-16, 0.0286908205599, -3.42615086285e-16, 2.96722152989e-16, 1.92964044787e-16, 1.18120956421, 1.18480348587,  1.3255469799,   1.325548172, 1.18120956421, 1.18480348587,  1.3255469799,   1.325548172, 2.92819786072, -0.00346787762828,             0, 0.00346787762828,             0, -1.87212153738e-15,             1, 70.2937927246,            70, 70.2008666992, 69.9095230103, 2.91888689995, -0.439648538828, 2.91888689995, -0.439648538828, 2.92819786072, -0.487545132637, -0.439648538828, -6.38217115402, -7.19717168808, 2.91888689995, -0.439648538828, -6.38217115402, -7.19717168808, 14.6283426285, 2.91888689995, -0.439648538828, -6.38217115402, -7.19717168808, 8.55244534631e-17,             0, -1.26122347646e-18, -0.00413854280487, 7.7526900724e-17, -1.53901430081e-18, -1.44187610333e-18, 0.00413854280487, 7.7526900724e-17, -1.53901430081e-18, -1.44187610333e-18, 0.874856472015, 1.09500002861, -0.874856472015, -1.09500002861, 5.10161740277e-18, 6.11224692625e-19, -2.57940841936e-19, 3.57423993052e-19, 8.09978228492e-20, 0.875047981739, 0.949999988079, 1.20000004768, 1.20000004768,             0, -0.875047981739, -0.949999988079, -1.20000004768, -1.20000004768,             0,             0,             0,             0, -0.0161237474531, -0.0905039533973, 0.372457921505, 0.311517089605, 0.311767905951, 0.382522314787, 0.372457921505, 0.311517089605, 0.311767905951,             0, 0.382522314787, 0.372457921505, 0.311517089605, 0.311767905951
        0.175, 0.000128733445308,             0, 4.3878445426e-16, 4.3878445426e-16, -1.72293714486e-16,             0, -2.09553502696e-16,             0, -0.000128733445308,             0, 4.3878445426e-16, 4.3878445426e-16, -1.72293714486e-16,             0, -2.09553502696e-16,             0, -6.91050638877e-17, -1.71791119546e-17, -5.71079497847e-18, 1.18892133552e-17,             0, -89.8243255615, -300.036956787, -89.8243255615, -300.036956787, 2.43499970436, 8.0638718359e-13, -2.43499970436, 8.0638718359e-13, 9745.22851562, 9745.22851562,         33579,       16789.5,       16789.5, 9745.22851562, 9745.22851562,         33579,       16789.5,       16789.5,             1,             0, 6.35211803355e-18, -1.67404329777,             0,             0,             0,             0,             0, 0.155732467771, -1.67404329777, 0.155732467771, 0.155732467771, 9.40798568073e-17,             0,             0,             0,             0,             0, 1.2044981887e-16, -3.71809850288e-16, 1.97310356128e-16, -1.45517136904e-16, 9.41200313153e-17, 1.20450268856e-16, -0.0364847891033, -3.71651163959e-16, 1.97309628209e-16, -1.45516607509e-16, 0.0364847891033, -3.71651163959e-16, 1.97309628209e-16, -1.45516607509e-16, 1.37954723835, 1.38492059708, 1.54617094994, 1.54617238045, 1.37954723835, 1.38492059708, 1.54617094994, 1.54617238045, 3.42076015472, -0.00444281287491,             0, 0.00444281287491,             0, -2.25057501118e-15,             1,  70.395652771,            70, 70.2883377075, 69.8821182251, 3.40911579132, 0.0550963357091, 3.40911579132, 0.0550963357091, 3.42076015472, -0.00287985568866, 0.0550963357091, -5.89676570892, -6.71176528931, 3.40911579132, 0.0550963357091, -5.89676570892, -6.71176528931, 15.1354827881, 3.40911579132, 0.0550963357091, -5.89676570892, -6.71176528931, 1.01778711318e-16,             0, 2.47733169514e-18, -0.00551101053134, 9.09168769636e-17, 1.94103410807e-18, 2.87285327491e-18, 0.00551101053134, 9.09168769636e-17, 1.94103410807e-18, 2.87285327491e-18, 0.874816715717, 1.09500002861, -0.874816715717, -1.09500002861, 6.35211803355e-18, 7.63687934793e-19, 1.40226694744e-19, -1.18496504956e-19, -1.10251698522e-18, 0.875060319901, 0.949999988079, 1.20000004768, 1.20000004768,             0, -0.875060319901, -0.949999988079, -1.20000004768, -1.20000004768, -5.55111512313e-17,             0, -5.55111512313e-17,             0, -0.0156550630927, -0.110156029463, 0.368554770947, 0.307724863291, 0.308947592974, 0.382587105036, 0.368554770947, 0.307724863291, 0.308947592974,             0, 0.382587105036, 0.368554770947, 0.307724863291, 0.308947592974
          0.2, -0.00451545789838,             0, -1.03193155755e-15, -1.03193155755e-15, 2.77288808429e-16,             0, 1.34860019825e-16,             0, 0.00451545789838,             0, -1.03193155755e-15, -1.03193155755e-15, 2.77288808429e-16,             0, 1.34860019825e-16,             0, 7.92520765505e-16, 1.42995612465e-16, -6.61866303968e-16, 1.22267167763e-16,             0, 6.80238485336, 1031.38024902, 6.80238485336, 1031.38024902, 4.67311286926, 1.86216168353e-13, -4.67311286926, 1.86216168353e-13, 9680.69921875, 9680.69921875, 44612.3867188, 22306.1933594, 22306.1933594, 9680.69921875, 9680.69921875, 44612.3867188, 22306.1933594, 22306.1933594,             1,             0, 7.78650008733e-18, -2.05227017403,             0,             0,             0,             0,             0, 0.299714058638, -2.05227017403, 0.299714058638, 0.299714058638, 1.1705765044e-16,             0,             0,             0,             0,             0, 4.37275597413e-17, -1.12410840926e-16, 2.53974782421e-16, -1.19301546596e-16, 1.17132784909e-16, 4.37281586201e-17, -0.048984028399, -1.12338737246e-16, 2.5397131488e-16, -1.1929990547e-16, 0.048984028399, -1.12338737246e-16, 2.5397131488e-16, -1.1929990547e-16, 1.57823479176, 1.58508741856, 1.76675379276, 1.76675474644, 1.57823479176, 1.58508741856, 1.76675379276, 1.76675474644, 3.91440200806, -0.00604768795893,             0, 0.00604768795893,             0, -2.36079962037e-15,             1, 70.3153915405,            70, 70.2895889282, 69.8918457031, 3.90015077591, 0.54944306612, 3.90015077591, 0.54944306612, 3.91440200806, 0.481325745583, 0.54944306612, -5.41146707535, -6.22646665573, 3.90015101433, 0.54944306612, -5.41146707535, -6.22646665573, 15.6293334961, 3.90015101433, 0.54944306612, -5.41146707535, -6.22646665573, 1.01270246705e-16,             0, 3.50881165012e-18, -0.00780687341467, 9.72446763007e-17, 2.18027645471e-18, 4.13287475454e-18, 0.00780687341467, 9.72446763007e-17, 2.18027645471e-18, 4.13287475454e-18, 0.874752342701, 1.09500002861, -0.874752342701, -1.09500002861, 7.78650008733e-18, 2.08351467611e-19, 1.13196699317e-18, 1.05705688359e-19, -9.48291227964e-19, 0.875079572201, 0.949999988079, 1.20000004768, 1.20000004768,             0, -0.875079572201, -0.949999988079, -1.20000004768, -1.20000004768, -5.55111512313e-17,             0, -5.55111512313e-17,             0, -0.0148893287405, -0.132033675909, 0.35756534338, 0.305327355862, 0.307569354773, 0.38271561265, 0.35756534338, 0.305327355862, 0.307569354773,             0, 0.38271561265, 0.35756534338, 0.305327355862, 0.307569354773
        0.225, -0.00680292118341,             0, -1.26401053829e-15, -1.26401053829e-15, 1.1741076888e-17,             0, 1.70266804348e-16,             0, 0.00680292118341,             0, -1.26401053829e-15, -1.26401053829e-15, 1.1741076888e-17,             0, 1.70266804348e-16,             0, 2.52170866941e-16, -3.28597405692e-16, -3.70369047245e-16, 7.95067542115e-17,             0, 124.063865662, 923.439941406, 124.063865662, 923.439941406, 6.23862457275, 8.71362172954e-13, -6.23862457275, 8.71362172954e-13,  9524.3984375,  9524.3984375,  62248.203125, 31124.1015625, 31124.1015625,  9524.3984375,  9524.3984375,  62248.203125, 31124.1015625, 31124.1015625,             1,             0, 7.77462673681e-18, -2.40453577042,             0,             0,             0,             0,             0, 0.438283234835, -2.40453577042, 0.438283234835, 0.438283234835, 2.80402382429e-17,             0,             0,             0,             0,             0, 1.12641392706e-16, -2.16908104489e-16, 3.57340171738e-16, -1.04311478797e-16, 2.80649477822e-17, 1.12644688194e-16, -0.069551050663, -2.16717111794e-16, 3.57329716175e-16, -1.04308428155e-16, 0.069551050663, -2.16717111794e-16, 3.57329716175e-16, -1.04308428155e-16, 1.77680015564, 1.78377115726, 1.98736107349, 1.98736035824, 1.77680015564, 1.78377115726, 1.98736107349, 1.98736035824, 4.40736961365, -0.00870322342962,             0, 0.00870322342962,             0, -2.83694161573e-15,             1, 70.2141113281,            70, 70.1750411987, 69.9008483887,  4.3907122612, 1.04079580307,  4.3907122612, 1.04079580307, 4.40736961365, 0.965586423874, 1.04079580307, -4.92610168457, -5.74110460281,  4.3907122612, 1.04079580307, -4.92610168457, -5.74110460281, 16.1032085419,  4.3907122612, 1.04079580307, -4.92610168457, -5.74110460281, 1.29371855132e-16,             0, 1.52619091268e-17, -0.0116314636543, 1.2027153167e-16, 1.25284668044e-17, 1.60598290524e-17, 0.0116314636543, 1.2027153167e-16, 1.25284668044e-17, 1.60598290524e-17, 0.874644339085, 1.09500002861, -0.874644339085, -1.09500002861, 7.77462673681e-18, 1.59468707155e-18, 3.00967184336e-19, -1.37436937655e-19, -1.56611387505e-18, 0.875109314919, 0.949999988079, 1.20000004768, 1.20000004768,             0, -0.875109314919, -0.949999988079, -1.20000004768, -1.20000004768,             0,             0,             0,             0, -0.0135682160035, -0.151904597878, 0.33999979496, 0.303599148989, 0.306349426508,  0.3830268085, 0.33999979496, 0.303599148989, 0.306349426508,             0,  0.3830268085, 0.33999979496, 0.303599148989, 0.306349426508
         0.25, -0.0095590967685,             0, 1.95143301741e-16, 1.95143301741e-16, -2.16077575449e-16,             0, 1.06733291577e-16,             0, 0.0095590967685,             0, 1.95143301741e-16, 1.95143301741e-16, -2.16077575449e-16,             0, 1.06733291577e-16,             0, 1.23337812115e-15, 1.02408009153e-15, -7.6118859327e-16, 1.55575044348e-16,             0, 140.716049194,  461.89553833, 140.716049194,  461.89553833, 11.2313346863, 2.56201255957e-13, -11.2313346863, 2.56201255957e-13, 9334.82324219, 9334.82324219, 72881.1484375, 36440.5742188, 36440.5742188, 9334.82324219, 9334.82324219, 72881.1484375, 36440.5742188, 36440.5742188,             1,             0, 9.02604347013e-18, -2.63895344734,             0,             0,             0,             0,             0, 0.505114972591, -2.63895344734, 0.505114972591, 0.505114972591, 3.24724076226e-17,             0,             0,             0,             0,             0, -8.87521618441e-18, 3.25118244331e-17, -1.44988998627e-16, -2.84669482954e-16, 3.25068812018e-17, -8.87556111873e-18, -0.103407882154, 3.24773475452e-17, -1.44983373799e-16, -2.84658418587e-16, 0.103407882154, 3.24773475452e-17, -1.44983373799e-16, -2.84658418587e-16, 1.97465252876,  1.9815505743, 2.20802140236, 2.20801734924, 1.97465252876,  1.9815505743, 2.20802140236, 2.20801734924, 4.89747571945, -0.013105744496,             0, 0.013105744496,             0, -2.87286640061e-15,             1, 69.9902801514,            70, 69.9647064209, 69.9319915771, 4.87925434113, 1.52983522415, 4.87925434113, 1.52983522415, 4.89747571945,  1.4505507946, 1.52983522415, -4.44057178497, -5.25558328629, 4.87925481796, 1.52983522415, -4.44057178497, -5.25558328629,  16.558259964, 4.87925481796, 1.52983522415, -4.44057178497, -5.25558328629, 1.25229016987e-16,             0, 1.194327788e-17, -0.0178858377039, 1.26725935963e-16, 1.32214729313e-17, 1.44528685851e-17, 0.0178858377039, 1.26725935963e-16, 1.32214729313e-17, 1.44528685851e-17, 0.874461293221, 1.09500002861, -0.874461293221, -1.09500002861, 9.02604347013e-18, 4.73015168277e-19, 1.40808288017e-18, -1.03282495066e-18, -1.583446721e-18, 0.875153243542, 0.949999988079, 1.20000004768, 1.20000004768,             0, -0.875153243542, -0.949999988079, -1.20000004768, -1.20000004768,             0,             0,             0,             0, -0.0115951756015, -0.164052769542, 0.329409211874, 0.301729381084, 0.304009079933, 0.383404105902, 0.329409211874, 0.301729381084, 0.304009079933,             0, 0.383404105902, 0.329409211874, 0.301729381084, 0.304009079933
        0.275, -0.0100314095616,             0, -1.63551675373e-15, -1.63551675373e-15, 4.92004804885e-16,             0, 7.38276166758e-17,             0, 0.0100314095616,             0, -1.63551675373e-15, -1.63551675373e-15, 4.92004804885e-16,             0, 7.38276166758e-17,             0, 8.06701738169e-17, -3.37975436847e-16, 7.51127006527e-16, -1.14667945502e-16,             0, 100.146110535, 205.101531982, 100.146110535, 205.101531982, 16.8146266937, 1.34066575116e-12, -16.8146266937, 1.34066575116e-12, 9097.51367188, 9097.51367188,  73368.984375, 36684.4921875, 36684.4921875, 9097.51367188, 9097.51367188,  73368.984375, 36684.4921875, 36684.4921875,             1,             0, 7.95375848873e-18, -2.69411158562,             0,             0,             0,             0,             0, 0.458662748337, -2.69411158562, 0.458662748337, 0.458662748337, -1.28902426825e-16,             0,             0,             0,             0,             0, -1.09623917241e-16, -4.33217515502e-16, -1.68087309166e-16, -1.24276329914e-16, -1.29045059233e-16, -1.09627431104e-16, -0.150388330221, -4.32738703659e-16, -1.68081922566e-16, -1.24272346212e-16, 0.150388330221, -4.32738703659e-16, -1.68081922566e-16, -1.24272346212e-16, 2.17141675949, 2.17812108994, 2.42873477936, 2.42872834206, 2.17141675949, 2.17812108994, 2.42873477936, 2.42872834206, 5.38351202011, -0.0194397699088,             0, 0.0194397699088,             0, -2.95937980474e-15,             1, 69.7414398193,            70, 69.7477340698, 69.9680404663, 5.36498975754, 2.01554918289, 5.36498975754, 2.01554918289, 5.38351202011, 1.93663775921, 2.01554918289, -3.95483565331, -4.76985549927, 5.36499023438, 2.01554918289, -3.95483565331, -4.76985549927, 17.0081329346, 5.36499023438, 2.01554918289, -3.95483565331, -4.76985549927, 1.35482853739e-16,             0, 1.82010886384e-17, -0.0265379399061, 1.15119996398e-16, 1.95466418341e-17, 1.91959304893e-17, 0.0265379399061, 1.15119996398e-16, 1.95466418341e-17, 1.91959304893e-17, 0.874195575714, 1.09500002861, -0.874195575714, -1.09500002861, 7.95375848873e-18, 3.84464889168e-19, 1.57896102393e-18, -8.29903587732e-19, -9.91880647716e-19, 0.875203192234, 0.949999988079, 1.20000004768, 1.20000004768,             0, -0.875203192234, -0.949999988079, -1.20000004768, -1.20000004768, 5.55111512313e-17,             0, 5.55111512313e-17,             0, -0.00895140040666, -0.164737969637, 0.32892331481, 0.29940199852, 0.300187766552, 0.383876144886, 0.32892331481, 0.29940199852, 0.300187766552,             0, 0.383876144886, 0.32892331481, 0.29940199852, 0.300187766552
          0.3, -0.00761149218306,             0, 2.63153178498e-16, 2.63153178498e-16, 3.59633050222e-17,             0, -1.9261056735e-16,             0, 0.00761149218306,             0, 2.63153178498e-16, 2.63153178498e-16, 3.59633050222e-17,             0, -1.9261056735e-16,             0, -3.81963790092e-16, 2.86504923942e-16, -7.50534295222e-16, 1.47392084038e-16,             0, 37.4727020264, -7.48552274704, 37.4727020264, -7.48552274704, 24.4498500824, 1.0244026764e-12, -24.4498500824, 1.0244026764e-12, 8842.24316406, 8842.24316406, 63994.6171875, 31997.3085938, 31997.3085938, 8842.24316406, 8842.24316406, 63994.6171875, 31997.3085938, 31997.3085938,             1,             0, 6.33054764472e-18, -2.57447934151,             0,             0,             0,             0,             0, 0.309207886457, -2.57447934151, 0.309207886457, 0.309207886457, -3.25517355668e-16,             0,             0,             0,             0,             0, -1.45086830932e-16, -2.30348015967e-16, 2.71239166771e-16, -3.29832406199e-16, -3.2584621621e-16, -1.4508893528e-16, -0.207479313016, -2.30115531893e-16, 2.71235196304e-16, -3.29827588699e-16, 0.207479313016, -2.30115531893e-16, 2.71235196304e-16, -3.29827588699e-16, 2.36710047722, 2.37352848053, 2.64948391914, 2.64947748184, 2.36710047722, 2.37352848053, 2.64948391914, 2.64947748184, 5.86569738388, -0.027572421357,             0, 0.027572421357,             0, -2.91265789089e-15,             1, 69.5563049316,            70, 69.5959091187, 69.9925308228, 5.84808683395, 2.49811601639, 5.84808683395, 2.49811601639, 5.86569738388, 2.42372202873, 2.49811601639, -3.46892666817, -4.28394508362, 5.84808778763, 2.49811601639, -3.46892666817, -4.28394508362, 17.4650154114, 5.84808778763, 2.49811601639, -3.46892666817, -4.28394508362, 1.40657430953e-16,             0, 2.91859429483e-17, -0.036929294467, 1.3031064557e-16, 2.77221525558e-17, 3.09659363648e-17, 0.036929294467, 1.3031064557e-16, 2.77221525558e-17, 3.09659363648e-17, 0.873853564262, 1.09500002861, -0.873853564262, -1.09500002861, 6.33054764472e-18, 1.21398970573e-18, 8.08695659103e-19, 2.99623920569e-19, -1.61882802753e-18, 0.875245511532, 0.949999988079, 1.20000004768, 1.20000004768,             0, -0.875245511532, -0.949999988079, -1.20000004768, -1.20000004768,             0,             0,             0,             0, -0.00580079527572, -0.154385074973, 0.338260352612, 0.297189921141, 0.296012073755, 0.384383440018, 0.338260352612, 0.297189921141, 0.296012073755,             0, 0.384383440018, 0.338260352612, 0.297189921141, 0.296012073755
        0.325, -0.000531243975274,             0, 1.86097648962e-15, 1.86097648962e-15, 2.195849933e-16,             0, -1.31983853278e-16,             0, 0.000531243975274,             0, 1.86097648962e-15, 1.86097648962e-15, 2.195849933e-16,             0, -1.31983853278e-16,             0, -2.32500776673e-16, 1.01590823529e-15, -6.23298141023e-16, 1.10988394675e-16,             0, -36.1393470764, -175.267211914, -36.1393470764, -175.267211914,  24.657869339, -5.13456092151e-14, -24.657869339, -5.13456092151e-14, 8634.53613281, 8634.53613281, 48697.3164062, 24348.6582031, 24348.6582031, 8634.53613281, 8634.53613281, 48697.3164062, 24348.6582031, 24348.6582031,             1,             0, 7.70622799914e-18, -2.34528255463,             0,             0,             0,             0,             0, 0.113350778818, -2.34528255463, 0.113350778818, 0.113350778818, -3.06969928162e-16,             0,             0,             0,             0,             0, -3.11781895865e-16, -8.01766183064e-17, -3.15052118021e-17, -5.7770075605e-17, -3.07227267359e-16, -3.1178250467e-16, -0.269424676895, -8.01094578581e-17, -3.15051489364e-17, -5.77699631085e-17, 0.269424676895, -8.01094578581e-17, -3.15051489364e-17, -5.77699631085e-17, 2.56208157539, 2.56820392609, 2.87024593353, 2.87024021149, 2.56208157539, 2.56820392609, 2.87024593353, 2.87024021149, 6.34556388855, -0.0369848683476,             0, 0.0369848683476,             0, -2.59911191656e-15,             1, 69.5051498413,            70, 69.5604782104, 69.9923477173, 6.32960319519, 2.97881793976, 6.32960319519, 2.97881793976, 6.34556388855, 2.91121029854, 2.97881793976, -2.98294377327, -3.79795074463,  6.3296046257, 2.97881793976, -2.98294377327, -3.79795074463, 17.9389762878,  6.3296046257, 2.97881793976, -2.98294377327, -3.79795074463, 1.15334838365e-16,             0, 3.34347793257e-17, -0.0480504520237, 1.12053895948e-16, 3.34971057305e-17, 3.35490659079e-17, 0.0480504520237, 1.12053895948e-16, 3.34971057305e-17, 3.35490659079e-17, 0.873456954956, 1.09500002861, -0.873456954956, -1.09500002861, 7.70622799914e-18, 5.66180779163e-19, 3.27579383759e-18, 1.03325153029e-19, -4.40063239504e-19, 0.875266373158, 0.949999988079, 1.20000004768, 1.20000004768,             0, -0.875266373158, -0.949999988079, -1.20000004768, -1.20000004768,             0,             0,             0,             0, -0.00246225483716, -0.137237489223, 0.353496700525, 0.296214640141, 0.293428778648, 0.384795486927, 0.353496700525, 0.296214640141, 0.293428778648,             0, 0.384795486927, 0.353496700525, 0.296214640141, 0.293428778648
         0.35, 0.0124874198809,             0, -5.79919360332e-16, -5.79919360332e-16, 3.80155824736e-16,             0, -1.00207835778e-16,             0, -0.0124874198809,             0, -5.79919360332e-16, -5.79919360332e-16, 3.80155824736e-16,             0, -1.00207835778e-16,             0, -2.1663587604e-15, 1.56214368935e-16, 1.72002290154e-15, -2.96859637024e-16,             0, -97.4646530151,  -289.2578125, -97.4646530151,  -289.2578125, 14.7129259109, -5.77684872594e-14, -14.7129259109, -5.77684872594e-14, 8521.73046875, 8521.73046875,  33074.609375, 16537.3046875, 16537.3046875, 8521.73046875, 8521.73046875,  33074.609375, 16537.3046875, 16537.3046875,             1,             0, 7.62073226539e-18, -2.10388708115,             0,             0,             0,             0,             0, -0.050174690783, -2.10388708115, -0.050174690783, -0.050174690783, -3.99040159597e-16,             0,             0,             0,             0,             0, -4.13574953804e-16, -1.75635180054e-16, -3.98233440124e-16, -9.63448692304e-17, -3.99309330786e-16, -4.13575112623e-16, -0.328739702702, -1.7551678073e-16, -3.98233281305e-16, -9.63448361432e-17, 0.328739702702, -1.7551678073e-16, -3.98233281305e-16, -9.63448361432e-17, 2.75699067116, 2.76285243034, 3.09098720551, 3.09098029137, 2.75699067116, 2.76285243034, 3.09098720551, 3.09098029137, 6.82542943954, -0.0466421581805,             0, 0.0466421581805,             0, -2.40826988783e-15,             1, 69.6164474487,            70, 69.6627960205, 69.9622421265, 6.81117725372, 3.45961141586, 6.81117725372, 3.45961141586, 6.82542943954, 3.39832735062, 3.45961141586, -2.49704003334, -3.31203746796, 6.81117963791, 3.45961141586, -2.49704003334, -3.31203746796, 18.4358959198, 6.81117963791, 3.45961141586, -2.49704003334, -3.31203746796, 1.04547708345e-16,             0, 5.10517411396e-17, -0.0587504208088, 9.8099875175e-17, 5.07030017934e-17, 5.09673687172e-17, 0.0587504208088, 9.8099875175e-17, 5.07030017934e-17, 5.09673687172e-17, 0.873050510883, 1.09500002861, -0.873050510883, -1.09500002861, 7.62073226539e-18, 1.4963830664e-18, 4.61247159216e-18, -6.65738635028e-19, -6.70999865615e-19, 0.875259637833, 0.949999988079, 1.20000004768, 1.20000004768,             0, -0.875259637833, -0.949999988079, -1.20000004768, -1.20000004768,             0,             0,             0,             0, 0.000654798175674, -0.11957526952, 0.369057148695, 0.297608166933, 0.29427626729, 0.385018110275, 0.369057148695, 0.297608166933, 0.29427626729,             0, 0.385018110275, 0.369057148695, 0.297608166933, 0.29427626729
        0.375, 0.0304159726948,             0, 1.34100805665e-15, 1.34100805665e-15, -3.85525404816e-16,             0, 1.75802985222e-16,             0, -0.0304159726948,             0, 1.34100805665e-15, 1.34100805665e-15, -3.85525404816e-16,             0, 1.75802985222e-16,             0, -1.55364297257e-15, 1.19120932702e-15, 5.21357514062e-16, -8.25189886604e-17,             0, -133.067947388, -292.685943604, -133.067947388, -292.685943604, 2.23447561264, -2.77449694079e-13, -2.23447561264, -2.77449694079e-13,    8515.28125,    8515.28125, 22220.7089844, 11110.3544922, 11110.3544922,    8515.28125,    8515.28125, 22220.7089844, 11110.3544922, 11110.3544922,             1,             0, 6.12217505815e-18, -1.94073152542,             0,             0,             0,             0,             0, -0.113268613815, -1.94073152542, -0.113268613815, -0.113268613815, -5.13361258342e-16,             0,             0,             0,             0,             0, -4.3154121083e-16, -1.63775660001e-16, -1.88915108185e-16, -3.41524134319e-16, -5.13655919929e-16, -4.31542057863e-16, -0.378214150667, -1.63681705519e-16, -1.88914750843e-16, -3.41523472575e-16, 0.378214150667, -1.63681705519e-16, -1.88914750843e-16, -3.41523472575e-16,  2.9524769783, 2.95819711685, 3.31166481972, 3.31165504456,  2.9524769783, 2.95819711685, 3.31166481972, 3.31165504456, 7.30752325058, -0.0552498102188,             0, 0.0552498102188,             0, -1.6585322271e-15,             1, 69.8507232666,            70, 69.8727722168, 69.9098052979, 7.29442596436, 3.94234442711, 7.29442596436, 3.94234442711, 7.30752325058,  3.8844397068, 3.94234442711, -2.01138138771, -2.82637786865, 7.29442930222, 3.94234442711, -2.01138138771, -2.82637786865, 18.9529857635, 7.29442930222, 3.94234442711, -2.01138138771, -2.82637786865, 6.7778292655e-17,             0, 7.72819493836e-17, -0.0680975317955, 6.22319209164e-17, 7.69084806458e-17, 7.66067913328e-17, 0.0680975317955, 6.22319209164e-17, 7.69084806458e-17, 7.66067913328e-17, 0.872690498829, 1.09500002861, -0.872690498829, -1.09500002861, 6.12217505815e-18, 3.79105394693e-18, 6.08922431845e-18, -3.96142869959e-19, -1.87096219082e-18, 0.875232160091, 0.949999988079, 1.20000004768, 1.20000004768,             0, -0.875232160091, -0.949999988079, -1.20000004768, -1.20000004768,             0,             0,             0,             0, 0.00317191635258, -0.107222214341, 0.379867821932, 0.302236944437, 0.299687951803, 0.385028898716, 0.379867821932, 0.302236944437, 0.299687951803,             0, 0.385028898716, 0.379867821932, 0.302236944437, 0.299687951803
          0.4, 0.0492777228355,             0, 7.28481024817e-17, 7.28481024817e-17, -3.72367462665e-16,             0, 1.06517918892e-15,             0, -0.0492777228355,             0, 7.28481024817e-17, 7.28481024817e-17, -3.72367462665e-16,             0, 1.06517918892e-15,             0, -1.57805912079e-15, 5.63650504393e-16, 1.38874261163e-17, 8.65218016713e-18,             0, -123.813293457, -270.27331543, -123.813293457, -270.27331543, -15.665892601, -3.62591331743e-13,  15.665892601, -3.62591331743e-13, 8586.85253906, 8586.85253906, 21358.3320312, 10679.1660156, 10679.1660156, 8586.85253906, 8586.85253906, 21358.3320312, 10679.1660156, 10679.1660156,             1,             0, 5.09925828366e-18, -1.9000222683,             0,             0,             0,             0,             0, -0.0511638596654, -1.9000222683, -0.0511638596654, -0.0511638596654, -5.9746739484e-16,             0,             0,             0,             0,             0, -4.8859692664e-16, -3.24711569255e-17, -3.18142372145e-16, -2.58722349151e-16, -5.97796043624e-16, -4.88597138399e-16, -0.41414090991, -3.24533063679e-17, -3.18142266266e-16, -2.58722243272e-16, 0.41414090991, -3.24533063679e-17, -3.18142266266e-16, -2.58722243272e-16, 3.14892697334,  3.1543340683, 3.53224945068, 3.53223776817, 3.14892697334,  3.1543340683, 3.53224945068, 3.53223776817,  7.7929110527, -0.0618655532598,             0, 0.0618655532598,             0, -9.6414996941e-16,             1,  70.068939209,            70, 70.0822143555, 69.8616409302, 7.78013181686, 4.42708444595, 7.78013181686, 4.42708444595,  7.7929110527, 4.36933231354, 4.42708444595, -1.52603983879, -2.34103941917, 7.78013515472, 4.42708444595, -1.52603983879, -2.34103941917,  19.473279953, 7.78013515472, 4.42708444595, -1.52603983879, -2.34103941917, 3.1898195385e-17,             0, 9.66367779598e-17, -0.0756384506822, 3.08215966567e-17, 9.63526844328e-17, 9.6405743106e-17, 0.0756384506822, 3.08215966567e-17, 9.63526844328e-17, 9.6405743106e-17, 0.872416198254, 1.09500002861, -0.872416198254, -1.09500002861, 5.09925828366e-18, 5.3449817972e-18, 7.61996629614e-18, -5.99275344893e-19, -1.82798684927e-18, 0.875198245049, 0.949999988079, 1.20000004768, 1.20000004768,             0, -0.875198245049, -0.949999988079, -1.20000004768, -1.20000004768,             0,             0,             0,             0, 0.00491941906512, -0.103010728955, 0.380726754665, 0.310935676098, 0.310180604458, 0.384884655476, 0.380726754665, 0.310935676098, 0.310180604458,             0, 0.384884655476, 0.380726754665, 0.310935676098, 0.310180604458
        0.425, 0.0669807493687,             0, 4.60421857958e-16, 4.60421857958e-16, -8.69099809891e-17,             0, -9.95935410151e-16,             0, -0.0669807493687,             0, 4.60421857958e-16, 4.60421857958e-16, -8.69099809891e-17,             0, -9.95935410151e-16,             0, -1.29414744115e-15, 4.84172926497e-16, 3.14324132908e-17, 6.62953373149e-18,             0, -90.396736145, -355.808685303, -90.396736145, -355.808685303, -41.8799438477, 4.58942291722e-13, 41.8799438477, 4.58942291722e-13, 8685.08886719, 8685.08886719, 25891.6308594, 12945.8154297, 12945.8154297, 8685.08886719, 8685.08886719, 25891.6308594, 12945.8154297, 12945.8154297,             1,             0, 5.98100427891e-18, -1.96570181847,             0,             0,             0,             0,             0, 0.108354642987, -1.96570181847, 0.108354642987, 0.108354642987, -5.48596876036e-16,             0,             0,             0,             0,             0, -4.94442512768e-16, -9.19941414068e-16, -1.45426623493e-16, -3.05442145423e-16, -5.48919913226e-16, -4.9444341274e-16, -0.435635775328, -9.19400054136e-16, -1.45426358795e-16, -3.05441616027e-16, 0.435635775328, -9.19400054136e-16, -1.45426358795e-16, -3.05441616027e-16, 3.34622907639, 3.35137677193, 3.75273823738, 3.75272703171, 3.34622907639, 3.35137677193, 3.75273823738, 3.75272703171, 8.28100776672, -0.0659934878349,             0, 0.0659934878349,             0, -5.69925906802e-16,             1, 70.2311019897,            70, 70.2069091797, 69.8233566284, 8.26782512665, 4.91430902481, 8.26782512665, 4.91430902481, 8.28100776672, 4.85322952271, 4.91430902481, -1.04097282887, -1.8559718132, 8.26782894135, 4.91430902481, -1.04097282887, -1.8559718132, 19.9821586609, 8.26782894135, 4.91430902481, -1.04097282887, -1.8559718132, 4.35490864252e-18,             0, 1.09386456848e-16, -0.0809842720628, -2.72002197873e-17, 1.09661484476e-16, 1.09964093614e-16, 0.0809842720628, -2.72002197873e-17, 1.09661484476e-16, 1.09964093614e-16, 0.872246444225, 1.09500002861, -0.872246444225, -1.09500002861, 5.98100427891e-18, 6.81121361328e-18, 1.08067251009e-17, 3.11996532742e-20, -1.92756223102e-18, 0.875171363354, 0.949999988079, 1.20000004768, 1.20000004768,             0, -0.875171363354, -0.949999988079, -1.20000004768, -1.20000004768, 5.55111512313e-17,             0, 5.55111512313e-17,             0, 0.00590250547975, -0.105944119394, 0.37621152401, 0.321384429932, 0.322713583708, 0.384687900543, 0.37621152401, 0.321384429932, 0.322713583708,             0, 0.384687900543, 0.37621152401, 0.321384429932, 0.322713583708
         0.45, 0.0787154138088,             0, -4.52329093421e-16, -4.52329093421e-16, -2.00041468282e-16,             0, -4.3220176418e-16,             0, -0.0787154138088,             0, -4.52329093421e-16, -4.52329093421e-16, -2.00041468282e-16,             0, -4.3220176418e-16,             0, 1.01451174266e-16, 6.97154014188e-16, -1.40144128987e-16, 1.281058916e-17,             0, -50.1518211365, -166.560501099, -50.1518211365, -166.560501099, -78.163482666, -2.30315029201e-12,  78.163482666, -2.30315029201e-12, 8789.46484375, 8789.46484375,  29408.328125, 14704.1640625, 14704.1640625, 8789.46484375, 8789.46484375,  29408.328125, 14704.1640625, 14704.1640625,             1,             0, 8.73697610608e-18, -2.08329391479,             0,             0,             0,             0,             0, 0.305185079575, -2.08329391479, 0.305185079575, 0.305185079575, -3.61840219559e-16,             0,             0,             0,             0,             0, -4.27849153031e-16, 5.63568977472e-16, -1.66950974762e-16, -7.83005792946e-17, -3.62079559306e-16, -4.27855241081e-16, -0.445636749268, 5.63196441794e-16, -1.66948605717e-16, -7.82994675638e-17, 0.445636749268, 5.63196441794e-16, -1.66948605717e-16, -7.82994675638e-17, 3.54394102097, 3.54938912392, 3.97315406799,  3.9731426239, 3.54394102097, 3.54938912392, 3.97315406799,  3.9731426239, 8.77024269104, -0.0679644718766,             0, 0.0679644718766,             0, -3.07016276746e-16,             1, 70.2302780151,            70, 70.2019729614, 69.8170776367, 8.75630092621, 5.40367841721, 8.75630092621, 5.40367841721, 8.77024269104, 5.33666133881, 5.40367841721, -0.55606341362, -1.37105953693, 8.75630569458, 5.40367841721, -0.55606341362, -1.37105953693, 20.4705715179, 8.75630569458, 5.40367841721, -0.55606341362, -1.37105953693, -2.46619416314e-17,             0, 1.23365028342e-16, -0.0842203870416, -4.1748980112e-18, 1.24254280588e-16, 1.23782099424e-16, 0.0842203870416, -4.1748980112e-18, 1.24254280588e-16, 1.23782099424e-16, 0.872165620327, 1.09500002861, -0.872165620327, -1.09500002861, 8.73697610608e-18, 8.95779527933e-18, 1.20068756614e-17, 2.42729429911e-20, -1.50261277038e-18, 0.875156104565, 0.949999988079, 1.20000004768, 1.20000004768,             0, -0.875156104565, -0.949999988079, -1.20000004768, -1.20000004768,             0,             0,             0,             0, 0.00627665175125, -0.112593390048, 0.372708827257, 0.330242007971, 0.333148598671,  0.3844794631, 0.372708827257, 0.330242007971, 0.333148598671,             0,  0.3844794631, 0.372708827257, 0.330242007971, 0.333148598671
        0.475, 0.0856644809246,             0, 3.47047524995e-15, 3.47047524995e-15, 1.34831313349e-16,             0, 4.10290054156e-16,             0, -0.0856644809246,             0, 3.47047524995e-15, 3.47047524995e-15, 1.34831313349e-16,             0, 4.10290054156e-16,             0, 1.11147906861e-15, 1.61934604774e-15, -1.46924693904e-15, 2.56550741963e-16,             0, -23.2569198608, 114.835601807, -23.2569198608, 114.835601807, -104.804512024, -1.34529139131e-12, 104.804512024, -1.34529139131e-12, 8855.64257812, 8855.64257812, 33172.8828125, 16586.4414062, 16586.4414062, 8855.64257812, 8855.64257812, 33172.8828125, 16586.4414062, 16586.4414062,             1,             0, 1.04427863109e-17, -2.19420742989,             0,             0,             0,             0,             0, 0.477623850107, -2.19420742989, 0.477623850107, 0.477623850107, -2.66064854254e-16,             0,             0,             0,             0,             0, -2.18001822547e-16, 1.72824843849e-16, 3.29854481996e-17, -1.01667114728e-16, -2.66260068879e-16, -2.18009392904e-16, -0.447744369507, 1.72698119779e-16, 3.29843033816e-17, -1.01663581012e-16, 0.447744369507, 1.72698119779e-16, 3.29843033816e-17, -1.01663581012e-16, 3.74154448509, 3.74728345871, 4.19355535507, 4.19353961945, 3.74154448509, 3.74728345871, 4.19355535507, 4.19353961945, 9.25904941559, -0.0683956965804,             0, 0.0683956965804,             0, -5.81185039314e-16,             1, 70.1327209473,            70, 70.1207809448, 69.8299942017, 9.24438095093,   5.892598629, 9.24438095093,   5.892598629, 9.25904941559, 5.82025146484,   5.892598629, -0.0711593702435, -0.886158525944,  9.2443857193,   5.892598629, -0.0711593702435, -0.886158525944, 20.9458446503,  9.2443857193,   5.892598629, -0.0711593702435, -0.886158525944, -1.68908312393e-17,             0, 1.36117731403e-16, -0.0856014862657, -1.02739248335e-17, 1.35842763332e-16, 1.36965227571e-16, 0.0856014862657, -1.02739248335e-17, 1.35842763332e-16, 1.36965227571e-16, 0.872148215771, 1.09500002861, -0.872148215771, -1.09500002861, 1.04427863109e-17, 1.20680349144e-17, 1.30864993892e-17, 2.96589408492e-19, -2.00740604645e-18, 0.87515181303, 0.949999988079, 1.20000004768, 1.20000004768,             0, -0.87515181303, -0.949999988079, -1.20000004768, -1.20000004768,             0,             0,             0,             0, 0.0062967762351, -0.119223937392, 0.368959277868, 0.335894018412, 0.339393228292, 0.384347528219, 0.368959277868, 0.335894018412, 0.339393228292,             0, 0.384347528219, 0.368959277868, 0.335894018412, 0.339393228292
          0.5, 0.0888475552201,             0, -7.36354010773e-16, -7.36354010773e-16, -5.61286806015e-16,             0, -1.89588221445e-16,             0, -0.0888475552201,             0, -7.36354010773e-16, -7.36354010773e-16, -5.61286806015e-16,             0, -1.89588221445e-16,             0, 1.78141603485e-16, -1.92295371832e-17, 3.83571289219e-15, -7.02499162662e-16,             0, 1.88675832748, 30.9482307434, 1.88675832748, 30.9482307434, -121.184631348, -1.00012240243e-12, 121.184631348, -1.00012240243e-12, 8885.45507812, 8885.45507812, 36521.4140625, 18260.7070312, 18260.7070312, 8885.45507812, 8885.45507812, 36521.4140625, 18260.7070312, 18260.7070312,             1,             0, 1.36541338866e-17, -2.25194811821,             0,             0,             0,             0,             0, 0.578110456467, -2.25194811821, 0.578110456467, 0.578110456467, -4.76356043238e-17,             0,             0,             0,             0,             0, -1.81504966177e-17, 2.35287836015e-17, -1.05204155571e-17, 1.05668346169e-16, -4.76724204785e-17, -1.81514214057e-17, -0.445701122284, 2.35106120978e-17, -1.05198803712e-17, 1.05662966187e-16, 0.445701122284, 2.35106120978e-17, -1.05198803712e-17, 1.05662966187e-16, 3.93865871429, 3.94438004494, 4.41399526596, 4.41397237778, 3.93865871429, 3.94438004494, 4.41399526596, 4.41397237778,  9.7462272644, -0.0679994896054,             0, 0.0679994896054,             0, -1.10105992808e-15,             1, 69.9822616577,            70, 69.9801940918, 69.8527297974, 9.73117637634, 6.37948036194, 9.73117637634, 6.37948036194,  9.7462272644, 6.30451059341, 6.37948036194, 0.413862407207, -0.401148468256, 9.73118114471, 6.37948036194, 0.413862407207, -0.401148468256, 21.4095935822, 9.73118114471, 6.37948036194, 0.413862407207, -0.401148468256, -2.08223776774e-18,             0, 1.47394545727e-16, -0.0855792090297, -1.15770275338e-18, 1.47500689543e-16, 1.46328369475e-16, 0.0855792090297, -1.15770275338e-18, 1.47500689543e-16, 1.46328369475e-16, 0.872164487839, 1.09500002861, -0.872164487839, -1.09500002861, 1.36541338866e-17, 1.50140940871e-17, 1.40168004728e-17, 1.39189584739e-20, -1.75183680887e-18, 0.875153899193, 0.949999988079, 1.20000004768, 1.20000004768,             0, -0.875153899193, -0.949999988079, -1.20000004768, -1.20000004768,             0,             0,             0,             0, 0.00614504143596, -0.122807554901, 0.36562409997, 0.338214576244, 0.341246038675,  0.3842882514, 0.36562409997, 0.338214576244, 0.341246038675,             0,  0.3842882514, 0.36562409997, 0.338214576244, 0.341246038675
        0.525, 0.0891573652625,             0, 5.25340845315e-16, 5.25340845315e-16, 4.73037030661e-17,             0, 1.91679899825e-17,             0, -0.0891573652625,             0, 5.25340845315e-16, 5.25340845315e-16, 4.73037030661e-17,             0, 1.91679899825e-17,             0, -4.77595292145e-16, -1.07929057253e-16, -7.56134665311e-16, 1.09133366051e-16,             0, 1.85602343082, -44.8604316711, 1.85602343082, -44.8604316711, -129.904464722, -1.60266212194e-12, 129.904464722, -1.60266212194e-12, 8910.66601562, 8910.66601562, 35811.1992188, 17905.5996094, 17905.5996094, 8910.66601562, 8910.66601562, 35811.1992188, 17905.5996094, 17905.5996094,             1,             0, 1.5777414702e-17, -2.23303198814,             0,             0,             0,             0,             0, 0.585399448872, -2.23303198814, 0.585399448872, 0.585399448872, 1.73407364289e-16,             0,             0,             0,             0,             0, 1.16935942393e-16, 3.04683865646e-16, 1.02791888455e-16, 1.96528399133e-16, 1.73539144087e-16, 1.16942056912e-16, -0.441904127598, 3.04452493303e-16, 1.02786521707e-16, 1.96518142094e-16, 0.441904127598, 3.04452493303e-16, 1.02786521707e-16, 1.96518142094e-16, 4.13510131836, 4.14074230194, 4.63450098038, 4.63447141647, 4.13510131836, 4.14074230194, 4.63450098038, 4.63447141647, 10.2312030792, -0.067234069109,             0, 0.067234069109,             0, -7.64730567418e-16,             1, 69.8027496338,            70, 69.8132324219, 69.8809585571, 10.2162704468, 6.86452054977, 10.2162704468, 6.86452054977, 10.2312030792, 6.78967094421, 6.86452054977, 0.899056613445, 0.0840319395065, 10.2162742615, 6.86452054977, 0.899056613445, 0.0840319395065, 21.8667411804, 10.2162742615, 6.86452054977, 0.899056613445, 0.0840319395065, -3.25508872104e-17,             0, 1.46394808621e-16, -0.0845168828964, -2.06792175288e-17, 1.45344593646e-16, 1.4438689055e-16, 0.0845168828964, -2.06792175288e-17, 1.45344593646e-16, 1.4438689055e-16, 0.87219530344, 1.09500002861, -0.87219530344, -1.09500002861, 1.5777414702e-17, 1.65117459451e-17, 1.59279996238e-17, 6.11755949373e-19, -1.18493643428e-18, 0.875158846378, 0.949999988079, 1.20000004768, 1.20000004768,             0, -0.875158846378, -0.949999988079, -1.20000004768, -1.20000004768,             0,             0,             0,             0, 0.00588065013289, -0.121930405498, 0.366331487894, 0.337408781052, 0.339158385992, 0.384238243103, 0.366331487894, 0.337408781052, 0.339158385992,             0, 0.384238243103, 0.366331487894, 0.337408781052, 0.339158385992
