Time,Alpha_L1i,Alpha_L1o,Alpha_L2i,Alpha_L2o,Alpha_R1i,Alpha_R1o,Alpha_R2i,Alpha_R2o,AVz,Ay,Bk_Stat,Fx_L1,Fx_L2,Fx_R1,Fx_R2,Fy_L1,Fy_L2,Fy_R1,Fy_R2,Fz_L1,Fz_L1i,Fz_L2,Fz_L2i,Fz_L2o,Fz_R1,Fz_R1i,Fz_R2,Fz_R2i,Fz_R2o,Lat_Targ,Lat_Veh,Pitch,PitchGL1,PitchGL2,PitchGR1,PitchGR2,Pitch_A1,Pitch_A2,Roll,RollGL1,RollGL2,RollGR1,RollGR2,Roll_A1,Roll_A2,Roll_E,Roll_L1,Roll_L2,Roll_R1,Roll_R2,Rot_L1,Rot_L2,Rot_R1,Rot_R2,Station,Steer_L1,Steer_L2,Steer_R1,Steer_R2,Steer_SW,Vx,VxTarget,Vxz_Fwd,Xctc_L1o,Xctc_L2o,Xctc_R1o,Xctc_R2o,Xo,X_A1,X_A2,X_L1,X_L2,X_R1,X_R2,Yaw,Yaw_L1,Yaw_L2,Yaw_R1,Yaw_R2,Yctc_L1o,Yctc_L2o,Yctc_R1o,Yctc_R2o,Yo,Y_A1,Y_A2,Y_L1,Y_L2,Y_R1,Y_R2,Zgnd_L1o,Zgnd_L2o,Zgnd_R1o,Zgnd_R2o,Zo,Z_A1,Z_A2,Z_L1,Z_L2,Z_R1,Z_R2
0, -0, 0, 0, 0, -0, 0, 0, 0, 0, -6.816618644111e-33, 0, 3.786857173214e-11, 0, 3.786857173214e-11, 0, 0, -0, 0, -0, 19050.99150209, 19050.99150209, 10575.96181522, 5287.98090761, 5287.98090761, 19050.99150209, 19050.99150209, 10575.96181522, 5287.98090761, 5287.98090761, 0, 0, -0.06825186537218, -0, -0, -0, -0, -0.06825186537218, -0.06825186537218, 0, 0, 0, 0, 0, 0, 0, 0, 0, 0, -0, -0, -0.0001895885149227, -0.0001895885149227, -0.0001895885149227, -0.0001895885149227, 0, 0, 0, -0, 0, 0, 70, 70, 70, -0.0006075219397205, -5.000627798819, -0.0006075219397205, -5.000627798819, 0, -0.0006075219397205, -5.000627798819, -0.0006075219397205, -5.000627798819, -0.0006075219397205, -5.000627798819, 0, 1.602653226532e-15, 0, -1.602653226532e-15, 0, 1.015, 1.0865, -1.015, -1.0865, 0, 4.2323e-22, 5.317e-21, 1.015, 0.9315, -1.015, -0.9315, -0, -0, -0, -0, -0.009439425400917, 0.500560212753, 0.5146041011147, 0.500560212753, 0.5146041011147, 0.500560212753, 0.5146041011147
0.025, 0.004389779662426, 0, 0.001236565859966, 0.00123656702542, -0.07946344309864, 0, 0.001236560021452, 0.001236558856011, 0.003368008148366, 0.002014121588969, 0, -102.6447945924, -51.16511046768, -102.681706087, -51.67007939199, -6.556318715569, -1.055463861995, 128.2562846973, -1.05614013043, 19031.70582463, 19031.70582463, 10599.66666091, 5300.188631571, 5299.478029339, 19069.85171109, 19069.85171109, 10608.20764129, 5303.748519531, 5304.459121764, 0, 8.410331871916e-06, -0.06849467625907, -0, -0, -0, -0, -0.07030431433988, -0.06849467625907, 0.0002646812065522, 0, 0, 0, 0, 0.001462919893523, 0.0001340175705737, 0.0002646813956828, 0.001629810262909, 0.0001340174748102, -0.006097692615827, 0.0001340174748102, 0.1514276341599, 0.1514594875798, 0.1514264278709, 0.1514595810168, 0.4860508662557, -0.001809467725858, 0, 0.08205288830134, 0, -0.001713790511854, 69.98078865043, 70, 69.980622759, 0.485443760166, -4.514579761221, 0.4855850324299, -4.514578579133, 0.4860508662557, 0.4854411822451, -4.514579170176, 0.4854437597245, -4.514579676902, 0.4855849561202, -4.514578663451, 3.100804388303e-05, -0.001776512605139, 3.116825617094e-05, 0.08207666540714, 3.116825617094e-05, 1.01501918448, 1.086504014567, -1.015048220861, -1.086495985438, 8.410331871916e-06, 4.945594039749e-06, 2.810915201882e-06, 1.015004945207, 0.9315028109125, -1.014994950937, -0.9314971890821, -0, -0, -0, -0, -0.009446595869809, 0.5005536847917, 0.5145898279827, 0.5005798918132, 0.5145920068043, 0.5005409648071, 0.5145876491612
0.05, 0.00867408266248, 0, 0.002487622316954, 0.002487629725302, -0.07178560057548, 0, 0.002487585204184, 0.002487577796101, 0.01066685147554, 0.002639781109997, 0, -101.997143661, -94.08723806447, -102.9135905782, -95.40237516961, -14.32604745074, -3.606883091856, 178.3976752176, -3.619290511941, 19031.1041823, 19031.1041823, 10668.01409159, 5335.777288222, 5332.236803371, 19095.9276631, 19095.9276631, 10710.56843532, 5353.513975237, 5357.054460088, 0, 4.820569512439e-05, -0.06891050714299, -0, -0, -0, -0, -0.0707527580518, -0.06891050714299, 0.00139717330397, 0, 0, 0, 0, 0.002208160981701, 0.0006677254316271, 0.001397174314493, 0.002453219026767, 0.0006677249486867, -0.004962620747136, 0.0006677249486867, 0.3029925245011, 0.3030110570642, 0.3029893490454, 0.3030120425007, 0.9719630534092, -0.002656783795499, 0, 0.07781157047418, 0, -0.01067838280539, 69.95961393999, 70, 69.95944665006, 0.9713506868777, -4.028674630459, 0.9714891227875, -4.028666969508, 0.9719630534092, 0.9713496607306, -4.028670799963, 0.9713506859602, -4.028674083983, 0.9714890637654, -4.028667515942, 0.0002011942288884, -0.002452640964813, 0.0002019973122469, 0.07800685217981, 0.0002019973122469, 1.015056448951, 1.086521235376, -1.015008241215, -1.086478764758, 4.820569512439e-05, 3.501659009581e-05, 1.523878702337e-05, 1.015035015721, 0.931515238718, -1.014964889669, -0.9314847611439, -0, -0, -0, -0, -0.009465406681865, 0.5005409600228, 0.5145462799327, 0.5005805054776, 0.5145571356326, 0.50051435765, 0.5145354242328
0.075, 0.0120094038009, 0, 0.002829831978505, 0.002829847540466, -0.06752759075375, 0, 0.002829754020676, 0.002829738459744, 0.0197123002532, 0.002701603791482, 0, -100.9864637756, -126.4976059435, -102.2606405758, -128.5095741704, -24.26859469389, -5.275231454265, 195.55401465, -5.314730825388, 19033.39277897, 19033.39277897, 10703.47810371, 5355.317206726, 5348.160896987, 19122.01298571, 19122.01298571, 10789.49232979, 5391.168010027, 5398.324319766, 0, 0.000121619252703, -0.06913727804518, -0, -0, -0, -0, -0.07115043892694, -0.06913727804518, 0.00315849858982, 0, 0, 0, 0, 0.00288225830005, 0.001349659787119, 0.003158500889303, 0.003199215354716, 0.001349658804526, -0.004132327073289, 0.001349658804526, 0.454508898085, 0.4544704472764, 0.4545054693679, 0.4544741247073, 1.457720803524, -0.003436046408844, 0, 0.07610932491947, 0, -0.02895855559177, 69.93731768031, 70, 69.93731558495, 1.457101063263, -3.542926148049, 1.457248565868, -3.542904133932, 1.457720803524, 1.457105380973, -3.542915140868, 1.457101061871, -3.54292457766, 1.457248517558, -3.542905704076, 0.0005788205380822, -0.002853367968549, 0.0005804491358975, 0.07668321408977, 0.0005804491358975, 1.015121702586, 1.08654784719, -1.014942252107, -1.086452153301, 0.000121619252703, 9.375336730955e-05, 3.572698466878e-05, 1.015093751882, 0.9315357266784, -1.014906155605, -0.9314642727091, -0, -0, -0, -1.110223024625e-16, -0.009489382480547, 0.5005265572238, 0.5145170992365, 0.5005781698534, 0.5145390416411, 0.5004877405496, 0.5144951568319
0.1, 0.0143900716611, 0, 0.001945274405242, 0.001945290241743, -0.06504056737173, 0, 0.001945195073364, 0.001945179238413, 0.0291971349511, 0.002617279266325, 0, -100.6098654333, -141.8227071759, -102.0307455759, -144.1635123943, -33.79463282105, -4.858206927349, 199.4236650333, -4.915969466832, 19037.13103158, 19037.13103158, 10674.85700167, 5342.534004355, 5332.322997319, 19142.6442267, 19142.6442267, 10797.58671849, 5393.687855729, 5403.898862765, 0, 0.0002173635446446, -0.06887133025021, -0, -0, -0, -0, -0.07095568329394, -0.06887133025021, 0.004837211549613, 0, 0, 0, 0, 0.003359559260192, 0.0019257670512, 0.00483721504421, 0.003765014159238, 0.001925765659949, -0.00355659308077, 0.001925765659949, 0.6059741547592, 0.6058504965554, 0.6059730041919, 0.605859394903, 1.943312371262, -0.004395637234589, 0, 0.07504309670311, 0, -0.05586077038624, 69.9143189226, 70, 69.91454699356, 1.942685822169, -3.057343757798, 1.942851463128, -3.057298530565, 1.943312371262, 1.942699305341, -3.057321143821, 1.942685820331, -3.057340531381, 1.942851421796, -3.057301756261, 0.001190197623754, -0.003200917127418, 0.001192512455803, 0.07622907275499, 0.001192512455803, 1.015208550817, 1.08657612403, -1.014855316331, -1.086423876727, 0.0002173635446446, 0.0001756592714645, 5.883006632164e-05, 1.015175657128, 0.9315588293384, -1.01482425026, -0.9314411692058, -0, 1.110223024625e-16, -0, -0, -0.009511191774897, 0.5005141324973, 0.514522335495, 0.5005743550095, 0.5145536440963, 0.5004666886004, 0.5144910268938
0.125, 0.01602127692023, 0, 0.000292949007451, 0.00029295213551, -0.06350802621296, 0, 0.0002929333378901, 0.0002929302102325, 0.0383063872437, 0.00254954010656, 0, -100.9229366381, -137.7416587806, -102.3308530468, -139.9688887913, -41.55436688302, -2.529883063348, 198.6201425093, -2.572981819498, 19042.70500604, 19042.70500604, 10598.501257, 5305.032618278, 5293.468638722, 19153.73072411, 19153.73072411, 10737.49283063, 5362.964425536, 5374.528405091, 0, 0.0003231720690868, -0.06816316739032, -0, -0, -0, -0, -0.07019891535971, -0.06816316739032, 0.005770237216008, 0, 0, 0, 0, 0.00350788348774, 0.002180933809968, 0.005770241299373, 0.004023313686596, 0.00218093226661, -0.003306486761627, 0.00218093226661, 0.7573870336264, 0.7571708721562, 0.7573908725788, 0.7571877150576, 2.428735607721, -0.005588780820578, 0, 0.07394834271021, 0, -0.08988772223378, 69.89116121076, 70, 69.89151642866, 2.428102457578, -2.571930065245, 2.428294059178, -2.571852765707, 2.428735607721, 2.428128836487, -2.571891414779, 2.428102455402, -2.571924550775, 2.428294020879, -2.571858278783, 0.002035572594862, -0.003548425767112, 0.002038167189484, 0.07598003320962, 0.002038167189484, 1.015309026472, 1.086599505404, -1.014754911168, -1.086400494795, 0.0003231720690868, 0.0002738792376053, 7.991897061154e-05, 1.015273876505, 0.9315799177064, -1.014726030374, -0.9314200797652, -0, -0, -0, -0, -0.009528108201203, 0.5005056250954, 0.5145571439926, 0.5005686671271, 0.5145926010267, 0.5004553759788, 0.5145216869586
0.15, 0.01750650324215, 0, -0.001486927384755, -0.001486946658908, -0.06213730900245, 0, -0.001486830834986, -0.001486811563835, 0.04650704089024, 0.00251402591604, 0, -101.7184802132, -115.9124381882, -103.0018934277, -117.7225997599, -47.73270909406, 0.7440696111463, 196.201744946, 0.7389680273964, 19052.57807595, 19052.57807595, 10526.70512374, 5268.717891375, 5257.98723236, 19156.91386754, 19156.91386754, 10655.68072209, 5322.475031536, 5333.20569055, 0, 0.0004329397605483, -0.06737776746102, -0, -0, -0, -0, -0.06928126452536, -0.06737776746102, 0.005667981863486, 0, 0, 0, 0, 0.003302709952419, 0.002023771882148, 0.005667985782589, 0.003949767086504, 0.00202377048282, -0.003389489514516, 0.00202377048282, 0.908748370492, 0.9084542553911, 0.908759768954, 0.9084814327086, 2.913997732263, -0.007017335503468, 0, 0.07263405685411, 0, -0.1298541979297, 69.86839573472, 70, 69.86868486497, 2.913355243069, -2.086680875956, 2.913579692107, -2.086563289291, 2.913997732263, 2.913397945396, -2.08662208164, 2.913355240712, -2.08667248752, 2.913579652977, -2.086571675759, 0.003098043325179, -0.003914652258254, 0.003100423207276, 0.07572816371611, 0.003100423207276, 1.015419144581, 1.086615892413, -1.01464487403, -1.086384105761, 0.0004329397605483, 0.0003846411854345, 9.771703334966e-05, 1.015384637853, 0.9315977150885, -1.014615268433, -0.9314022810218, -1.110223024625e-16, -0, -1.110223024625e-16, -0, -0.009541538740909, 0.5004989555112, 0.5145963298204, 0.5005585926107, 0.5146292317587, 0.5004521278309, 0.514563427882
0.175, 0.01943566845369, 0, -0.002828395482122, -0.002828437694476, -0.06034548453892, 0, -0.002828184030806, -0.002828141826022, 0.05354081852212, 0.002460008236561, 0, -102.6931134875, -80.09720249614, -103.7898461954, -81.45590306483, -53.41347763039, 3.763676321758, 192.682129929, 3.787509709702, 19066.87612407, 19066.87612407, 10511.72123621, 5259.991352826, 5251.729883383, 19155.39907243, 19155.39907243, 10611.01876894, 5301.378649748, 5309.640119191, 0, 0.0005485125406762, -0.06694943379501, -0, -0, -0, -0, -0.06869167931058, -0.06694943379501, 0.004695161467318, 0, 0, 0, 0, 0.002832874184325, 0.001558089712698, 0.004695164672623, 0.003632387710419, 0.001558088649018, -0.003718906748409, 0.001558088649018, 1.060060491019, 1.059722452146, 1.06008173364, 1.059761774133, 3.399110756691, -0.008671857867388, 0, 0.07111668396972, 0, -0.1753137055229, 69.84649185026, 70, 69.84655456224, 3.398452771343, -1.601587667567, 3.398716070055, -1.601422572599, 3.399110756691, 3.398514776943, -1.601505119019, 3.398452768953, -1.601575890286, 3.398716027272, -1.601434347753, 0.004351260336765, -0.00431635906303, 0.004353080945565, 0.07546364675122, 0.004353080945565, 1.015540123984, 1.086628629537, -1.014523997115, -1.086371364995, 0.0005485125406762, 0.0005083951792824, 0.0001146380394562, 1.015508390934, 0.9316146350066, -1.014491514113, -0.9313853589277, -0, -0, -0, -0, -0.009553461495508, 0.5004924229408, 0.5146115457268, 0.5005440029491, 0.51463687673, 0.5004536733617, 0.5145862147235
0.2, 0.02207957431406, 0, -0.003516855347051, -0.00351691354146, -0.05791713199016, 0, -0.00351656384082, -0.003516505657983, 0.05934447400082, 0.002337610135569, 0, -103.5871561642, -35.88370523361, -104.4866315446, -36.92839659977, -59.79238439706, 5.817915340391, 187.7364851373, 5.846565262555, 19081.54861908, 19081.54861908, 10568.98513748, 5287.099031016, 5281.88610646, 19150.86807253, 19150.86807253, 10631.64112746, 5313.214101454, 5318.42702601, 0, 0.0006772372063229, -0.06711124623057, -0, -0, -0, -0, -0.06870664378191, -0.06711124623057, 0.003337596570691, 0, 0, 0, 0, 0.002263751473486, 0.0009831427940965, 0.003337598860237, 0.003236368433857, 0.0009831421196742, -0.004135026657757, 0.0009831421196742, 1.211326295412, 1.210992570331, 1.211359351236, 1.211045387051, 3.88408601441, -0.01054961227379, 0, 0.0694543405363, 0, -0.2264030991843, 69.82578952417, 70, 69.82559525822, 3.883404830964, -1.116640676042, 3.883712016403, -1.116421995004, 3.88408601441, 3.883488589684, -1.116531334634, 3.883404828605, -1.116625076644, 3.883711968989, -1.116437592625, 0.005764840403739, -0.004780988324084, 0.005765991970636, 0.07521438477477, 0.005765991970636, 1.015676726572, 1.086644035274, -1.01438756628, -1.086355954042, 0.0006772372063229, 0.0006484599049129, 0.0001352107028698, 1.015648454047, 0.9316352058488, -1.014351448321, -0.9313647844431, -0, -1.110223024625e-16, -0, -0, -0.009562386336218, 0.5004872311466, 0.5145916768975, 0.5005290312229, 0.5146076605684, 0.5004582965819, 0.5145756932266
0.225, 0.02533194053588, 0, -0.003718747195597, -0.003718813586308, -0.05497639145579, 0, -0.003718414635231, -0.003718348258764, 0.06400037714813, 0.002124018718037, 0, -104.2745675466, 9.894581386231, -105.0060885333, 9.033402290427, -67.55110029781, 6.68576394716, 181.1405022541, 6.685126858859, 19089.48305232, 19089.48305232, 10666.66440845, 5334.660461253, 5332.0039472, 19142.19438892, 19142.19438892, 10698.59399349, 5347.968739719, 5350.625253772, 0, 0.0008273761773305, -0.06776675347674, -0, -0, -0, -0, -0.06924590328405, -0.06776675347674, 0.002154022998476, 0, 0, 0, 0, 0.001767752086343, 0.0005010110267, 0.002154024505113, 0.002934737189206, 0.0005010106762667, -0.004466355998395, 0.0005010106762667, 1.362548515589, 1.362272711874, 1.362595065546, 1.362340186862, 4.368930781279, -0.01265687556323, 0, 0.06765860216767, 0, -0.2833923385417, 69.80643332749, 70, 69.80608795965, 4.368220097925, -0.6318311756889, 4.368575157995, -0.6315539601432, 4.368930781279, 4.368327520376, -0.6316925673421, 4.368220095534, -0.6318114013415, 4.368575106953, -0.6315737333426, 0.007308786546095, -0.005344626814657, 0.007309379118238, 0.07496215320055, 0.007309379118238, 1.015834110277, 1.086668423786, -1.014230437284, -1.086331558614, 0.0008273761773305, 0.0008084816316267, 0.0001639332166734, 1.015808473181, 0.9316639256011, -1.014191424593, -0.9313360591677, 1.110223024625e-16, -0, -0, -1.110223024625e-16, -0.0095623111494, 0.500487582361, 0.5145496789594, 0.5005209350043, 0.5145578242617, 0.5004671470622, 0.5145415336571
0.25, 0.028817785629, 0, -0.003705421299544, -0.003705491211061, -0.05185142782607, 0, -0.003705071105107, -0.003705001209442, 0.0676047566569, 0.001851451247744, 0, -104.8368825435, 54.3058284002, -105.4372453842, 53.63429400639, -76.60122624838, 7.114349595793, 173.1424639389, 7.123607065576, 19083.90305285, 19083.90305285, 10747.12717019, 5374.239944589, 5372.887225599, 19126.57591275, 19126.57591275, 10763.38597973, 5381.016630368, 5382.369349358, 0, 0.001003895361595, -0.06858707050891, -0, -0, -0, -0, -0.06995950882084, -0.06858707050891, 0.001542527257311, 0, 0, 0, 0, 0.001459083381938, 0.000255118974745, 0.001542528362515, 0.002841838008321, 0.0002551187919552, -0.004593752922094, 0.0002551187919552, 1.513729479249, 1.513564392085, 1.513790956733, 1.513647640599, 4.853648701569, -0.01499546171097, 0, 0.06568083486513, 0, -0.3462275402838, 69.78842318821, 70, 69.7880859125, 4.852905628781, -0.1471519911459, 4.853311506944, -0.1468123132297, 4.853648701569, 4.853038144807, -0.1469821518297, 4.852905626166, -0.1471277615761, 4.853311454677, -0.1468365420833, 0.008956027356222, -0.006036043232175, 0.008956332751473, 0.07463141007397, 0.008956332751473, 1.016014959338, 1.086705862963, -1.014049884461, -1.08629411051, 0.001003895361595, 0.0009901456596495, 0.000203585275369, 1.015990133502, 0.9317035738855, -1.014009757706, -0.9312964033347, -0, -0, -0, -0, -0.009545746201521, 0.5004983677813, 0.5145126241913, 0.5005266289222, 0.5145167718468, 0.5004830841947, 0.5145084765359
0.275, 0.03206392811344, 0, -0.003920782665172, -0.003920859585072, -0.04895459712084, 0, -0.00392039736671, -0.003920320464944, 0.07026712808173, 0.001551643317564, 0, -105.364323806, 93.48055889645, -105.8822415388, 92.99867565288, -86.22821105362, 7.361851386256, 164.4384100931, 7.371853271356, 19062.16105864, 19062.16105864, 10767.52764642, 5384.438602209, 5383.089044207, 19102.27259786, 19102.27259786, 10783.74846292, 5391.199452459, 5392.549010461, 0, 0.001206357464586, -0.06924755116321, -0, -0, -0, -0, -0.07050169337238, -0.06924755116321, 0.001614695429177, 0, 0, 0, 0, 0.001363716323165, 0.0002545228248999, 0.001614696608477, 0.002982270373442, 0.0002545226390081, -0.004486525561078, 0.0002545226390081, 1.664871340104, 1.664864961809, 1.664948936993, 1.664964954521, 5.33824316371, -0.0175513597428, 0, 0.06347423804712, 0, -0.4142354521484, 69.77165886537, 70, 69.77143469472, 5.337468128935, 0.3374037294836, 5.337926813913, 0.3378088368901, 5.33824316371, 5.337626744173, 0.337606283613, 5.337468125812, 0.3374326262042, 5.337926763192, 0.3377799410217, 0.0106812132203, -0.006866554992907, 0.01068152083595, 0.07415007505911, 0.01068152083595, 1.016218138041, 1.086756827797, -1.013846990571, -1.086243134463, 0.001206357464586, 0.001192101274234, 0.0002545611155502, 1.016192084257, 0.9317545449191, -1.013807798513, -0.931245422688, -0, -0, -0, -0, -0.009508801544449, 0.500521831315, 0.5145022254772, 0.5005488145682, 0.5145063634406, 0.5005078835698, 0.5144980875138
0.3, 0.03471067555664, 0, -0.004592055454756, -0.0045921478722, -0.04660166665307, 0, -0.004591592529165, -0.004591500134072, 0.07206017177845, 0.001281815371634, 0, -105.9099597854, 126.2429784828, -106.3693762473, 125.938101388, -95.4274373727, 8.137239129963, 155.9822752781, 8.156667343271, 19028.15823597, 19028.15823597, 10725.80656135, 5364.057290363, 5361.74927099, 19070.88471475, 19070.88471475, 10753.54746517, 5375.619722897, 5377.92774227, 0, 0.001429020441306, -0.06963166933927, -0, -0, -0, -0, -0.07075084117719, -0.06963166933927, 0.002189223179417, 0, 0, 0, 0, 0.001415506656964, 0.0004352859339686, 0.002189224796114, 0.003286549621879, 0.0004352856125189, -0.004209928894352, 0.0004352856125189, 1.815976399184, 1.816170377409, 1.816071069623, 1.816287763789, 5.822720185031, -0.02028902831948, 0, 0.06103045684777, 0, -0.4861638466378, 69.75596256369, 70, 69.75584444914, 5.821914985866, 0.8218434981642, 5.822427723846, 0.8223161559172, 5.822720185031, 5.822100372588, 0.8220798278909, 5.821914981945, 0.8218772136724, 5.822427676674, 0.8222824421095, 0.01246210082387, -0.007822948356267, 0.01246262982756, 0.07348748619431, 0.01246262982756, 1.016438805407, 1.086819020142, -1.013626559344, -1.086180928515, 0.001429020441306, 0.001410114405751, 0.0003151369147916, 1.01641009138, 0.9318151148522, -1.013589781143, -0.9311848410226, 1.110223024625e-16, 1.110223024625e-16, -1.110223024625e-16, -0, -0.00945492622908, 0.5005551697813, 0.5145205729376, 0.5005835111806, 0.5145276496987, 0.5005399122052, 0.5145134961764
0.325, 0.0366365140278, 0, -0.005767268482738, -0.005767386035388, -0.04491124645167, 0, -0.005766679654009, -0.005766562130152, 0.07296687557717, 0.001081930724937, 0, -106.4337891998, 152.9128313395, -106.8346918358, 152.7294266501, -103.3690643033, 9.796513534314, 148.6111002471, 9.832147102635, 18991.010094, 18991.010094, 10660.29817846, 5331.908114441, 5328.390064021, 19037.62393241, 19037.62393241, 10702.5828748, 5349.532412188, 5353.050462607, 0, 0.001663295347025, -0.0698671663998, -0, -0, -0, -0, -0.07085213791985, -0.0698671663998, 0.002914245981285, 0, 0, 0, 0, 0.001502523229929, 0.0006634943746202, 0.002914248147978, 0.003637654110621, 0.0006634938813235, -0.003880909906536, 0.0006634938813235, 1.967047164419, 1.967476699194, 1.967159607424, 1.967611723315, 6.307088747438, -0.02315307827959, 0, 0.05840200701092, 0, -0.5604124370999, 69.74114302888, 70, 69.74103917288, 6.306254332915, 1.306175540445, 6.306821780684, 1.306717034222, 6.307088747438, 6.306466870563, 1.306446288818, 6.306254327994, 1.306214166658, 6.306821737678, 1.306678410978, 0.01427682939631, -0.008871830340192, 0.01427763846918, 0.0726741471267, 0.01427763846918, 1.016670260252, 1.086888553333, -1.013395290364, -1.086111379345, 0.001663295347025, 0.001638506406424, 0.0003826284232775, 1.016638476278, 0.9318825994394, -1.013361384194, -0.9311173425928, -0, -0, -1.110223024625e-16, -0, -0.00939462217702, 0.5005910734373, 0.5145502854111, 0.5006214172625, 0.5145610723234, 0.5005738519819, 0.5145394984988
0.35, 0.03797095985682, 0, -0.007248527946792, -0.007248675653147, -0.04378117067102, 0, -0.007247788076207, -0.007247640406021, 0.07294023120737, 0.0009625146460484, 0, -106.8520550878, 174.913422341, -107.1748298373, 174.7842381945, -109.6940355436, 12.25890519941, 142.7670546097, 12.31314678628, 18960.78903281, 18960.78903281, 10622.02327711, 5313.160521775, 5308.862755339, 19008.91865771, 19008.91865771, 10673.67965692, 5334.690945243, 5338.988711679, 0, 0.001900918846422, -0.07018263091074, -0, -0, -0, -0, -0.0710611366324, -0.07018263091074, 0.003434650667395, 0, 0, 0, 0, 0.001520556730881, 0.0008105466189255, 0.003434653244113, 0.003925339854297, 0.0008105460108438, -0.003612585433319, 0.0008105460108438, 2.118086088939, 2.118780439342, 2.11821672367, 2.118932999532, 6.79135835332, -0.02607704286182, 0, 0.05568271211411, 0, -0.6353907167579, 69.72703888895, 70, 69.72685980784, 6.790493920048, 1.790407690275, 6.791116205483, 1.791018437329, 6.79135835332, 6.790733699185, 1.790713065848, 6.79049391408, 1.790451256884, 6.791116165939, 1.790974874813, 0.01610265602011, -0.009969598243092, 0.01610364887299, 0.07178098448052, 0.01610364887299, 1.01690620395, 1.086962049275, -1.01315950619, -1.086037865114, 0.001900918846422, 0.001871942427367, 0.0004548126517242, 1.016871904212, 0.9319547757663, -1.01312794243, -0.9310451504628, -0, -0, -0, -0, -0.009341136247034, 0.5006211209921, 0.5145674226694, 0.500652254914, 0.5145806003173, 0.5006031432318, 0.5145542450215
0.375, 0.03899849282483, 0, -0.008739368111755, -0.008739543755029, -0.04295808811639, 0, -0.00873848830188, -0.008738312701027, 0.0719348090109, 0.0009057268598956, 0, -107.1200694239, 193.97886246, -107.3376350194, 193.8706805466, -114.5741794353, 15.12124353166, 138.3908109884, 15.18783783099, 18944.10358792, 18944.10358792, 10639.78186552, 5322.035521744, 5317.74634378, 18989.42876873, 18989.42876873, 10691.33501744, 5343.522919737, 5347.812097701, 0, 0.00213655586201, -0.07070222844881, -0, -0, -0, -0, -0.07151784325053, -0.07070222844881, 0.00353509102254, 0, 0, 0, 0, 0.001414213658763, 0.0008089268663517, 0.003535093714024, 0.004088365894697, 0.0008089262504659, -0.003469256433701, 0.0008089262504659, 2.269095170663, 2.270078487692, 2.269244117872, 2.270248293456, 7.275535732315, -0.02899654923415, 0, 0.05296804018628, 0, -0.7098331981947, 69.71354021106, 70, 69.7132775436, 7.274639678439, 2.274545987205, 7.275316358437, 2.275225493463, 7.275535732315, 7.274906476738, 2.274885742606, 7.274639671533, 2.27459445863, 7.275316320938, 2.275177026581, 0.01791563379351, -0.01107589259791, 0.01791663199823, 0.07087943299608, 0.01791663199823, 1.017142534192, 1.087038150891, -1.0129233351, -1.085961743084, 0.00213655586201, 0.002106855854967, 0.0005309391490452, 1.017106808713, 0.9320308935133, -1.012893022425, -0.9309690152153, -0, -1.110223024625e-16, -0, -0, -0.009304773794911, 0.5006395605951, 0.514558388499, 0.5006692807785, 0.5145715398132, 0.5006230309509, 0.5145452371847
0.4, 0.0400211987777, 0, -0.009957297915046, -0.009957492532304, -0.04215232391723, 0, -0.009956323059872, -0.009956128488325, 0.06994988831826, 0.0008766205001466, 0, -107.2842495564, 211.5927529887, -107.3780517747, 211.5251400462, -118.5522067831, 17.8602855895, 135.0176143693, 17.92391087218, 18941.94070941, 18941.94070941, 10702.31348663, 5352.899372379, 5349.414114251, 18980.3571611, 18980.3571611, 10744.20404077, 5370.359391322, 5373.84464945, 0, 0.002368849947569, -0.07132933256826, -0, -0, -0, -0, -0.07211772942094, -0.07132933256826, 0.00320323063817, 0, 0, 0, 0, 0.001190221718951, 0.0006573098616604, 0.003203233120443, 0.004128794031424, 0.000657309352293, -0.0034498494348, 0.000657309352293, 2.420075720687, 2.421368346504, 2.420242798786, 2.421555064901, 7.759623166929, -0.03186120889496, 0, 0.05032072331909, 0, -0.7829465711756, 69.70058667002, 70, 69.70032850888, 7.758695095054, 2.75859406176, 7.759425051969, 2.75934089939, 7.759623166929, 7.758988342194, 2.758967482603, 7.758695087394, 2.758647335686, 7.759425015137, 2.759287629521, 0.01969114902643, -0.01216494456754, 0.0196919673321, 0.07000761626796, 0.0196919673321, 1.01737800484, 1.087117790097, -1.01268803191, -1.085882081706, 0.002368849947569, 0.002341982683228, 0.0006119514103011, 1.017341925927, 0.9321118963334, -1.012657888246, -0.9308879935128, -0, -1.110223024625e-16, -0, -1.110223024625e-16, -0.00928920666523, 0.5006452741238, 0.5145289495765, 0.5006714877721, 0.5145396359423, 0.5006322877036, 0.5145182632106
0.425, 0.04123581807471, 0, -0.01072708526023, -0.01072728628962, -0.04115818360475, 0, -0.01072607828122, -0.0107258772971, 0.06705893680879, 0.0008365191069599, 0, -107.4718964962, 228.8054226836, -107.4411153211, 228.8418266386, -122.2690506354, 19.96827878211, 132.0160917246, 20.01299848377, 18950.60874604, 18950.60874604, 10768.60632171, 5385.412230668, 5383.194091042, 18979.9138927, 18979.9138927, 10795.26692895, 5396.524394664, 5398.74253429, 0, 0.002599773726563, -0.07179860350721, -0, -0, -0, -0, -0.07256684852701, -0.07179860350721, 0.002602478519357, 0, 0, 0, 0, 0.000903583793832, 0.000418334887129, 0.002602480562714, 0.004098623059626, 0.0004183345586703, -0.003501113879698, 0.0004183345586703, 2.57102849029, 2.572648810249, 2.571213235012, 2.572852126186, 8.243619701742, -0.03464014326376, 0, 0.04776261240477, 0, -0.8543734717634, 69.68815360135, 70, 69.68802684726, 8.242661940827, 3.242553838739, 8.243443311061, 3.243365684018, 8.243619701742, 8.242980701644, 3.242959762782, 8.242661932557, 3.242611749032, 8.243443274133, 3.243307776532, 0.02140550854732, -0.01322952591344, 0.02140603277184, 0.06916377094998, 0.02140603277184, 1.017613690186, 1.087203717087, -1.012452512154, -1.085796131315, 0.002599773726563, 0.002577942448683, 0.0007000363666878, 1.017577875551, 0.9321999713319, -1.01242192053, -0.9307998985985, -0, -1.110223024625e-16, -0, -0, -0.009291620312449, 0.5006410594018, 0.5144990119121, 0.5006626428557, 0.5145058130875, 0.5006327399911, 0.5144922107368
0.45, 0.0426808009277, 0, -0.01105084230199, -0.0110510381399, -0.03992078722379, 0, -0.01104986132168, -0.01104966552547, 0.06339945349662, 0.0007595528147942, 0, -107.8162446185, 246.302785549, -107.6784923236, 246.5068211426, -126.2008263988, 21.17096357605, 128.8680918862, 21.1901546799, 18964.85830132, 18964.85830132, 10797.71598881, 5399.333063701, 5398.382925112, 18985.32215484, 18985.32215484, 10809.13604167, 5404.092951539, 5405.043090129, 0, 0.002832799975229, -0.07185698476912, -0, -0, -0, -0, -0.07258052056449, -0.07185698476912, 0.00197899302348, 0, 0, 0, 0, 0.0006255487089254, 0.0001791934626526, 0.00197899457983, 0.004067739444176, 0.0001791933217286, -0.003551235018643, 0.0001791933217286, 2.721954105564, 2.723920611722, 2.722155811326, 2.724140181053, 8.727524504679, -0.03732083158987, 0, 0.04528975209291, 0, -0.9240126365902, 69.67623783434, 70, 69.6763197527, 8.726541988369, 3.726427206468, 8.727372179731, 3.727300941528, 8.727524504679, 8.726884978082, 3.726864074645, 8.726541979511, 3.726489530601, 8.727372142729, 3.727238618689, 0.02303766421083, -0.01427809527734, 0.02303788894463, 0.06832299804846, 0.02303788894463, 1.01785164647, 1.08729920811, -1.012214703795, -1.085700616242, 0.002832799975229, 0.002816180116596, 0.0007976868660135, 1.017816102736, 0.9322976115618, -1.012183674569, -0.9307022378298, -0, -0, 1.110223024625e-16, -0, -0.009305991254108, 0.5006310131114, 0.5144880479489, 0.5006481025124, 0.5144909612277, 0.5006272213294, 0.5144851346701
0.475, 0.0442459171123, 0, -0.01106964459993, -0.01106982763314, -0.03854528930712, 0, -0.0110687277537, -0.01106854475686, 0.05913901556477, 0.0006414187017025, 0, -108.3704630791, 264.5374448373, -108.155438042, 264.9393666258, -130.5211488184, 21.5334672904, 125.3477344691, 21.53228187696, 18980.56599718, 18980.56599718, 10776.20549182, 5388.127324969, 5388.078166847, 18994.74020948, 18994.74020948, 10776.79634073, 5388.373591302, 5388.422749424, 0, 0.003070813224644, -0.07144320758557, -0, -0, -0, -0, -0.07208251172469, -0.07144320758557, 0.001550799750044, 0, 0, 0, 0, 0.0004218302607174, 9.271083282481e-06, 0.001550800955643, 0.004101532096649, 9.271076075107e-06, -0.003534244291943, 9.271076075107e-06, 2.872853545057, 2.875186461358, 2.873071318257, 2.875421807502, 9.211340123154, -0.03990097194842, 0, 0.04289936995419, 0, -0.991793301798, 69.66484938699, 70, 69.66511099015, 9.210338632125, 4.210217601367, 9.21121444721, 4.211149462459, 9.211340123154, 9.210704268031, 4.210683531949, 9.21033862254, 4.210284071016, 9.211214410848, 4.211082992881, 0.0245704943116, -0.01532539443721, 0.02457050587189, 0.06746549061155, 0.02457050587189, 1.018093531199, 1.08740674287, -1.011972945168, -1.085593057322, 0.003070813224644, 0.003057781329685, 0.0009067595219662, 1.018057693333, 0.9324066738703, -1.011942064993, -0.9305931548264, -0, -0, -0, -0, -0.009326910520509, 0.5006181791826, 0.5145017852468, 0.5006320742304, 0.5145019359736, 0.5006176110787, 0.51450163452
0.5, 0.04573943011117, 0, -0.01094842456401, -0.01094859125661, -0.03723409059308, 0, -0.01094758956422, -0.01094742290211, 0.05444219353115, 0.000498057833563, 0, -109.0711460495, 283.8245517375, -108.8108963593, 284.4185095354, -135.07063538, 21.37655835184, 121.5900511717, 21.3667447557, 18995.95423446, 18995.95423446, 10724.84936599, 5362.262213563, 5362.587152429, 19007.36410533, 19007.36410533, 10720.94381047, 5360.634374666, 5360.3094358, 0, 0.003314654780039, -0.07074251093101, -0, -0, -0, -0, -0.07126799451452, -0.07074251093101, 0.00142750767832, 0, 0, 0, 0, 0.0003205302255192, -6.12825536175e-05, 0.001427508766409, 0.00422811666216, -6.128250690615e-05, -0.003423294020352, -6.128250690615e-05, 3.023728368477, 3.026450297542, 3.023961177629, 3.026700718383, 9.695073522735, -0.04237985149525, 0, 0.04060288646476, 0, -1.057499627617, 69.65400901535, 70, 69.65432760558, 9.69405741933, 4.693930537436, 9.69497522422, 4.694916271305, 9.695073522735, 9.694443891215, 4.694423404121, 9.694057408766, 4.694000849542, 9.694975189458, 4.6948459587, 0.02599105238279, -0.01638361106596, 0.02599097671787, 0.06658974301703, 0.02599097671787, 1.018339531132, 1.087527278559, -1.011727061218, -1.085472497863, 0.003314654780039, 0.00330268689214, 0.001027940678821, 1.01830258837, 0.932527844837, -1.011697151231, -0.9304719634793, 1.110223024625e-16, -0, 1.110223024625e-16, -0, -0.009351417562274, 0.5006038736237, 0.5145291343935, 0.5006163718671, 0.5145281380783, 0.5006047296112, 0.5145301307087
0.525, 0.04698724261468, 0, -0.0108592071615, -0.01085935726193, -0.03617415284459, 0, -0.01085845526919, -0.01085830519369, 0.04941595669179, 0.0003554472491138, 0, -109.7803632509, 304.3521054727, -109.496989391, 305.1033178175, -139.4850434665, 21.10454975445, 117.96169733, 21.09764066781, 19010.82694979, 19010.82694979, 10682.662846, 5341.224233319, 5341.438612684, 19022.56395133, 19022.56395133, 10680.08614435, 5340.150261858, 5339.935882494, 0, 0.003562746698843, -0.07008083944925, -0, -0, -0, -0, -0.07048943556461, -0.07008083944925, 0.001585558505947, 0, 0, 0, 0, 0.0003092436363544, -4.043134292833e-05, 0.001585559692005, 0.00443503534942, -4.043131268418e-05, -0.003232544934425, -4.043131268418e-05, 3.174580571829, 3.177716053845, 3.174827283986, 3.177980568179, 10.17873431212, -0.04475428809148, 0, 0.03841640461816, 0, -1.120704817031, 69.64374794853, 70, 69.64397965055, 10.17770522115, 5.177572812746, 10.17866108081, 5.178607807724, 10.17873431212, 10.1781105569, 5.178090310062, 10.17770520934, 5.177646638722, 10.17866104842, 5.178533981402, 0.02728990047227, -0.01745899649829, 0.02728985101903, 0.06570237989294, 0.02728985101903, 1.018588157843, 1.087660259538, -1.011478555717, -1.08533949398, 0.003562746698843, 0.003549517070999, 0.001160745875997, 1.018549408324, 0.9326606402159, -1.011450313216, -0.9303391484639, -0, -0, -0, -0, -0.009377982240691, 0.5005885163496, 0.514550319135, 0.5006011954903, 0.5145496618131, 0.5005892196611, 0.5145509764568
0.55, 0.04790100047879, 0, -0.01086715577218, -0.01086728990747, -0.03545178105963, 0, -0.0108664838475, -0.01086634973211, 0.04412167828463, 0.0002365033687417, 0, -110.3676636884, 326.0309545826, -110.0709779717, 326.8767115614, -143.374095097, 21.01363358484, 114.8465795767, 21.01509468661, 19024.58807658, 19024.58807658, 10679.74027152, 5339.93521858, 5339.805052939, 19038.29516397, 19038.29516397, 10681.30477855, 5340.587306455, 5340.717472097, 0, 0.003811764125223, -0.06973588477998, -0, -0, -0, -0, -0.07004916658637, -0.06973588477998, 0.001899567101053, 0, 0, 0, 0, 0.0003463093457325, 2.454887235326e-05, 0.001899568508047, 0.004680192168363, 2.454885417012e-05, -0.003004351270209, 2.454885417012e-05, 3.325412196693, 3.328986535471, 3.325671592145, 3.32926388601, 10.66233150001, -0.04701675350662, 0, 0.03634544016383, 0, -1.180815291078, 69.63410330237, 70, 69.63416371876, 10.66128869403, 5.661151027406, 10.6622784336, 5.662230389845, 10.66233150001, 10.66171080324, 5.661690708735, 10.66128868079, 5.661228018393, 10.66227840391, 5.662153399076, 0.0284596640227, -0.01855142804865, 0.02845969390164, 0.06480147436558, 0.02845969390164, 1.018836756239, 1.087804004754, -1.011230086586, -1.085195727178, 0.003811764125223, 0.003795984370195, 0.00130391832418, 1.018795865898, 0.9328038034114, -1.011203838637, -0.930195966763, -0, -0, -0, -0, -0.009404048796921, 0.5005734544036, 0.5145507538137, 0.5005871533538, 0.5145511529226, 0.5005731675119, 0.5145503547048
0.575, 0.04850661765473, 0, -0.01095165110353, -0.01095176930388, -0.03501649284566, 0, -0.01095105899631, -0.01095094081129, 0.03857805514403, 0.0001509771098194, 0, -110.7804655039, 348.3740711872, -110.4693152251, 349.2383788985, -146.4841056003, 21.17082796563, 112.446324775, 21.17873707161, 19034.87945191, 19034.87945191, 10717.247773, 5358.820986172, 5358.42678683, 19050.48418796, 19050.48418796, 10721.98579477, 5360.795797713, 5361.189997055, 0, 0.004057922644111, -0.06979191454418, -0, -0, -0, -0, -0.07003928067482, -0.06979191454418, 0.00220905098862, 0, 0, 0, 0, 0.0003823029513686, 7.434488258383e-05, 0.002209052627477, 0.004913322396925, 7.434482742869e-05, -0.002786854876218, 7.434482742869e-05, 3.476224960427, 3.480263023023, 3.476495733868, 3.48055175452, 11.14587095904, -0.04915678518181, 0, 0.0343758856375, 0, -1.237200580891, 69.62510636827, 70, 69.62500796702, 11.14481305873, 6.144670401861, 11.1458322674, 6.14578899124, 11.14587095904, 11.14524975427, 6.145229696894, 11.144813044, 6.144750191139, 11.14583224026, 6.145709202649, 0.02949390540735, -0.01965693145462, 0.02949399596673, 0.0638664217933, 0.02949399596673, 1.01908242836, 1.087956587415, -1.010984534065, -1.085043124681, 0.004057922644111, 0.004039629592569, 0.001456063731363, 1.019039502085, 0.9329559403136, -1.010960186909, -0.9300438128509, -0, -0, -0, -0, -0.009424452137131, 0.5005619711318, 0.5145308077629, 0.50057665178, 0.5145320164419, 0.5005607298283, 0.5145295990839
0.6, 0.04891325066495, 0, -0.01100060912753, -0.01100071009559, -0.03472243536863, 0, -0.011000103338, -0.01100000238108, 0.03280702789751, 9.233022588186e-05, 0, -111.0594956422, 370.6244997065, -110.7282154297, 371.4527760025, -148.7806224346, 21.40324424694, 110.6940725216, 21.41057346732, 19038.0392189, 19038.0392189, 10769.0658379, 5384.712983485, 5384.352854414, 19054.19025915, 19054.19025915, 10773.39435699, 5386.51711396, 5386.877243031, 0, 0.004298248619479, -0.07012769937781, -0, -0, -0, -0, -0.07032676824469, -0.07012769937781, 0.002387435103784, 0, 0, 0, 0, 0.0003803211803013, 6.791932620155e-05, 0.002387436892065, 0.005096460045343, 6.791927532739e-05, -0.002614449652335, 6.791927532739e-05, 3.627020135153, 3.63154580252, 3.627300894683, 3.631844394901, 11.62935512544, -0.05116359349421, 0, 0.03248180091925, 0, -1.289339377034, 69.61676950867, 70, 69.61659509024, 11.62828192036, 6.628134597665, 11.62932594842, 6.62928704536, 11.62935512544, 11.62873092761, 6.628710821836, 11.62828190422, 6.628216802035, 11.62932592336, 6.629204841637, 0.03038665966734, -0.02077073443318, 0.03038674279781, 0.06286528484677, 0.03038674279781, 1.019322913623, 1.088116648572, -1.010744128489, -1.08488304583, 0.004298248619479, 0.00427852328668, 0.00161619147013, 1.019278387616, 0.9331160604681, -1.010721287712, -0.9298836775278, -0, -0, 1.110223024625e-16, -0, -0.009432290227113, 0.500558458753, 0.5145044744397, 0.5005734273882, 0.5145055786538, 0.500556948194, 0.5145033702257
0.625, 0.04925374090067, 0, -0.01091026000103, -0.01091034193288, -0.03441008358, 0, -0.01090984956739, -0.01090976764293, 0.02684288431768, 4.428477288877e-05, 0, -111.2965661221, 392.1071137875, -110.9402676433, 392.8807029328, -150.4292349822, 21.45093780206, 109.3149251885, 21.44913113025, 19031.04980835, 19031.04980835, 10802.21743925, 5401.092893996, 5401.124545257, 19045.92169457, 19045.92169457, 10801.83701152, 5400.93433139, 5400.902680129, 0, 0.004531290017423, -0.07053298587519, -0, -0, -0, -0, -0.07068029051179, -0.07053298587519, 0.002383475680104, 0, 0, 0, 0, 0.0003266769282193, -5.969338489606e-06, 0.002383477486115, 0.00521485269443, -5.969333966513e-06, -0.002499090734331, -5.969333966513e-06, 3.777798717632, 3.782835161947, 3.778087993103, 3.783142157119, 12.11278487979, -0.05302760324615, 0, 0.0306460371476, 0, -1.336913926967, 69.60908116427, 70, 69.60891705199, 12.11169811123, 7.111546526547, 12.11276210692, 7.112727261813, 12.11278487979, 12.11215707782, 7.112136894151, 12.11169809382, 7.111630748316, 12.11276208338, 7.112643039986, 0.03113261241016, -0.02188861151309, 0.03113260506171, 0.06177559623376, 0.03113260506171, 1.019557054016, 1.088283710505, -1.010510004206, -1.084715968709, 0.004531290017423, 0.004511635809309, 0.001783924499394, 1.019511493004, 0.933283786988, -1.010488170877, -0.9297159379893, -0, -0, -1.110223024625e-16, -0, -0.009421974931804, 0.5005662407627, 0.5144887616197, 0.5005805593467, 0.5144886645718, 0.5005653855498, 0.5144888586676
0.65, 0.04963182748392, 0, -0.01060922240148, -0.01060928397603, -0.03397781429238, 0, -0.01060891394359, -0.01060885237334, 0.02074667655702, -1.039585724146e-05, 0, -111.5636059392, 412.5285278444, -111.1811460635, 413.2642371907, -151.7014333523, 21.10108370107, 107.9829837545, 21.08388832006, 19013.62594493, 19013.62594493, 10799.92259952, 5399.613973317, 5400.308626205, 19025.68447871, 19025.68447871, 10791.57331997, 5396.13398643, 5395.439333542, 0, 0.004757094738638, -0.07086327951768, -0, -0, -0, -0, -0.07094095963399, -0.07086327951768, 0.002224223838362, 0, 0, 0, 0, 0.0002298435235575, -0.0001310095758887, 0.002224225539525, 0.005276090945441, -0.0001310094756881, -0.002433150097481, -0.0001310094756881, 3.928561735582, 3.934132075009, 3.928857998292, 3.934446150084, 12.59616210552, -0.05474082105377, 0, 0.02887868267853, 0, -1.379823368445, 69.60201275076, 70, 69.60189088366, 12.59506486055, 7.594909476363, 12.59614385892, 7.596112773973, 12.59616210552, 12.59553137573, 7.595511124517, 12.59506484204, 7.59499530688, 12.59614383644, 7.596026942153, 0.03172767149512, -0.02300666612153, 0.03172750946284, 0.06060336687717, 0.03172750946284, 1.019784741091, 1.088458038836, -1.010282269586, -1.084541628007, 0.004757094738638, 0.004738792201622, 0.001959381824377, 1.019738643417, 0.9334592390051, -1.01026101147, -0.9295404753563, -0, -0, -0, -0, -0.009392510299484, 0.5005854596905, 0.5144919653253, 0.5005983387501, 0.5144898354071, 0.5005860357948, 0.5144940952436
0.675, 0.05008987887795, 0, -0.01009041825353, -0.0100904594327, -0.03341746416615, 0, -0.01009021196423, -0.01009017078708, 0.01458941426315, -8.196053307967e-05, 0, -111.8690433901, 432.039104447, -111.4640733494, 432.7693764054, -152.8658213132, 20.29461258486, 106.4722838291, 20.26014280646, 18988.88552429, 18988.88552429, 10771.86793762, 5385.193149548, 5386.674788073, 18997.46841677, 18997.46841677, 10754.05959844, 5377.770618483, 5376.288979958, 0, 0.004976663434053, -0.07112367317534, -0, -0, -0, -0, -0.0711154556323, -0.07112367317534, 0.001988980829686, 0, 0, 0, 0, 0.0001151570397289, -0.0002794328494929, 0.001988982362128, 0.005304806346347, -0.0002794326341996, -0.002395162282245, -0.0002794326341996, 4.079310460118, 4.08543810043, 4.079612149288, 4.085758074481, 13.07949108474, -0.05629562230114, 0, 0.02722157680975, 0, -1.418127914325, 69.59553286036, 70, 69.59541995399, 13.07838643329, 8.078227728051, 13.07947547036, 8.079447771821, 13.07949108474, 13.07885805701, 8.078837748527, 13.07838641377, 8.078314752314, 13.07947544867, 8.079360744741, 0.03216940464815, -0.02411967609086, 0.03216905777643, 0.05938802915845, 0.03216905777643, 1.020006534542, 1.088640186876, -1.010060392237, -1.084359470649, 0.004976663434053, 0.004960337156858, 0.002142867382157, 1.019960183642, 0.9336427205514, -1.010039464812, -0.9293569857871, -0, -0, -0, -0, -0.009348775637398, 0.5006124863911, 0.514508691949, 0.500623584054, 0.5145041490053, 0.5006148277087, 0.5145132348926
0.7, 0.05060401159808, 0, -0.009376400442314, -0.009376422600736, -0.03280325585172, 0, -0.009376289437345, -0.009376267279553, 0.008449856875752, -0.0001718988013576, 0, -112.1611852038, 451.0316792892, -111.7417107429, 451.8005225034, -154.0928942202, 19.08772848084, 104.7457505138, 19.03917346948, 18962.24822982, 18962.24822982, 10745.37250809, 5371.577341606, 5373.795166484, 18967.68905774, 18967.68905774, 10718.7156839, 5360.466754391, 5358.248929513, 0, 0.005191194688167, -0.07143145775853, -0, -0, -0, -0, -0.07133688458002, -0.07143145775853, 0.001770322517514, 0, 0, 0, 0, 1.159444449557e-05, -0.0004182755233533, 0.001770323893318, 0.005329388142096, -0.0004182751982913, -0.002361579091576, -0.0004182751982913, 4.230046378124, 4.236754643016, 4.230351926784, 4.237079436311, 13.56277787204, -0.05768424560776, 0, 0.02573285001571, 0, -1.451961307312, 69.58961974052, 70, 69.58945767688, 13.56166783205, 8.561506267189, 13.56276204101, 8.562737222306, 13.56277787204, 13.56214212898, 8.56212174262, 13.56166781155, 8.561594069038, 13.56276202006, 8.562649416201, 0.03245728023569, -0.02522036611371, 0.03245675876582, 0.05818720598978, 0.03245675876582, 1.020223114754, 1.088830635817, -1.009843733303, -1.084169015587, 0.005191194688167, 0.005176703477481, 0.002334566286736, 1.020176546542, 0.9338344168044, -1.009823098055, -0.9291652842309, -0, -0, 1.110223024625e-16, -0, -0.009299878506892, 0.5006412782493, 0.5145244672843, 0.5006507649466, 0.514517667074, 0.5006452148219, 0.5145312674945
0.725, 0.05110473926375, 0, -0.008541661347328, -0.008541667056005, -0.03224381046315, 0, -0.008541632748815, -0.008541627040184, 0.002392466774893, -0.0002737063349162, 0, -112.383350095, 469.8065851748, -111.9592515747, 470.6487502321, -155.4119849359, 17.61663561152, 102.9407253348, 17.56043473766, 18939.10218347, 18939.10218347, 10745.55998761, 5371.394249322, 5374.165738284, 18942.46235603, 18942.46235603, 10712.24847833, 5357.509983648, 5354.738494685, 0, 0.005401419367241, -0.07189326388009, -0, -0, -0, -0, -0.0717289490491, -0.07189326388009, 0.001637552849284, 0, 0, 0, 0, -5.963580931129e-05, -0.0005226950149046, 0.001637554138414, 0.005370433795168, -0.0005226946034239, -0.002315597591407, -0.0005226946034239, 4.380770963417, 4.388082184154, 4.381078818759, 4.388410740711, 14.04602823184, -0.05889864448792, 0, 0.02445971012698, 0, -1.481445326224, 69.58426464904, 70, 69.58402823045, 14.04491383115, 9.044749851997, 14.04600848703, 9.045985932622, 14.04602823184, 14.04538840273, 9.045367889639, 14.04491380961, 9.044838018906, 14.04600846689, 9.045897760372, 0.03259255959209, -0.02629939271254, 0.03259190372806, 0.05704938338331, 0.03259190372806, 1.020434819187, 1.089029436768, -1.009631987695, -1.083970211759, 0.005401419367241, 0.005388049119256, 0.002534306391968, 1.020387890104, 0.9340341556484, -1.009611753187, -0.9289655428645, -0, -0, -0, -0, -0.00925549843219, 0.5006659625215, 0.5145260692475, 0.5006743833277, 0.5145175714135, 0.5006709563707, 0.5145345670815
0.75, 0.05151194815859, 0, -0.007664320395385, -0.007664312818662, -0.03182849790036, 0, -0.00766435835255, -0.007664365929363, -0.0035282466736, -0.0003772841424949, 0, -112.5233220986, 488.305350667, -112.1042775205, 489.2239884145, -156.7265638554, 16.02007556242, 101.2807488459, 15.96248205433, 18922.78134001, 18922.78134001, 10777.28404781, 5387.08284842, 5390.201199388, 18925.35876076, 18925.35876076, 10739.80348101, 5371.460915991, 5368.342565023, 0, 0.005607246118578, -0.07249423140353, -0, -0, -0, -0, -0.07228324181049, -0.07249423140353, 0.001615160078253, 0, 0, 0, 0, -9.161422769129e-05, -0.0005881122202313, 0.001615161371101, 0.005434184255008, -0.0005881117494797, -0.002251822808777, -0.0005881117494797, 4.531485424605, 4.539420115221, 4.531794060402, 4.539751324822, 14.52924576741, -0.05993145484157, 0, 0.02341878171697, 0, -1.506637990967, 69.57946354748, 70, 69.57919251053, 14.52812810028, 9.527962165759, 14.52921861831, 9.529197691251, 14.52924576741, 14.52860060998, 9.528579925502, 14.52812807761, 9.528050292738, 14.52921859908, 9.529109558266, 0.0325780105729, -0.02734661670236, 0.03257726645645, 0.05599396185099, 0.03257726645645, 1.020641409114, 1.089236003882, -1.009425401044, -1.083763644985, 0.005607246118578, 0.005594081123304, 0.00274146063835, 1.020593921374, 0.9342413100198, -1.009405723137, -0.9287583887431, 1.110223024625e-16, -0, -0, -0, -0.009222395131074, 0.5006830158126, 0.5145109470319, 0.500691037197, 0.5145013856628, 0.5006884090411, 0.5145205084009
0.775, 0.05176803828257, 0, -0.006789240114618, -0.006789222508608, -0.03159378719596, 0, -0.006789328316421, -0.00678934592298, -0.009261094348716, -0.0004737728754378, 0, -112.6322163701, 506.1777685286, -112.2270875436, 507.1415106909, -157.8794469201, 14.38333749245, 99.96519538442, 14.32819208465, 18913.96935991, 18913.96935991, 10822.4768896, 5409.575186304, 5412.901703299, 18916.83545208, 18916.83545208, 10782.49430147, 5392.91040923, 5389.583892236, 0, 0.005807824369646, -0.07307857075431, -0, -0, -0, -0, -0.07283525354944, -0.07307857075431, 0.001683494791173, 0, 0, 0, 0, -9.090771713095e-05, -0.000627371755438, 0.001683496160531, 0.005513430119096, -0.0006273712451331, -0.002175278581164, -0.0006273712451331, 4.682190615622, 4.690767390977, 4.68249854002, 4.691100060847, 15.01243156898, -0.06077754670278, 0, 0.02259404341652, 0, -1.52753524798, 69.57520458948, 70, 69.57498722677, 15.01131303315, 10.0111456487, 15.01239495288, 10.01237509152, 15.01243156898, 15.01178122504, 10.01176036692, 15.01131300931, 10.01123334162, 15.01239493463, 10.01228739223, 0.03241768401902, -0.0283528800948, 0.03241688383061, 0.0550089712932, 0.03241688383061, 1.020842134475, 1.089449223362, -1.009224704199, -1.08355042897, 0.005807824369646, 0.005794112527845, 0.00295503068679, 1.020793953364, 0.9344548815404, -1.009205694855, -0.9285448201668, -0, -1.110223024625e-16, -0, -0, -0.009202915005058, 0.5006918579699, 0.5144885277265, 0.5007000289472, 0.5144783280867, 0.5006971063207, 0.5144987273664
0.8, 0.05185341172941, 0, -0.005937376853848, -0.005937352315225, -0.0315247234421, 0, -0.005937499787484, -0.005937524327326, -0.01476055528694, -0.0005580874073979, 0, -112.8002569702, 523.0955568738, -112.4151069735, 524.0595386169, -158.7270238342, 12.7338336406, 99.0994688496, 12.68274775799, 18911.58748385, 18911.58748385, 10853.95929129, 5425.239949205, 5428.719342085, 18915.30469347, 18915.30469347, 10812.13923364, 5407.809313262, 5404.329920382, 0, 0.006001886388676, -0.07343544903153, -0, -0, -0, -0, -0.07315590148917, -0.07343544903153, 0.00179529332256, 0, 0, 0, 0, -7.230683641915e-05, -0.0006562037228866, 0.001795294797152, 0.005592962587491, -0.0006562031839039, -0.002097653486524, -0.0006562031839039, 4.832887173964, 4.842123550523, 4.833192937818, 4.8424564388, 15.49558563501, -0.06143509637495, 0, 0.02195273602159, 0, -1.544112182798, 69.57146242238, 70, 69.57138211244, 15.49447040716, 10.49430213309, 15.49553940107, 10.49552016567, 15.49558563501, 15.4949321219, 10.49491114608, 15.49447038216, 10.494389012, 15.49553938377, 10.49543328016, 0.03211686968793, -0.02931110885664, 0.03211602863816, 0.05406693516156, 0.03211602863816, 1.021035986342, 1.089667769908, -1.009030875425, -1.083331888863, 0.006001886388676, 0.005987267284168, 0.00317383273184, 1.020987109971, 0.9346736863347, -1.009012544374, -0.928326020871, -1.110223024625e-16, -0, -0, -0, -0.009195938205303, 0.5006938525265, 0.514472934016, 0.5007024593656, 0.514462265634, 0.5006986683446, 0.5144836023981
0.825, 0.0517857603894, 0, -0.005102535951049, -0.005102507396662, -0.03157896516061, 0, -0.005102679004131, -0.005102707560439, -0.01998577594891, -0.0006286438501899, 0, -113.0973217142, 539.0270953705, -112.7353398055, 539.9483740062, -159.1925654539, 11.07978116372, 98.68630416863, 11.03282917835, 18914.2904061, 18914.2904061, 10854.5473583, 5425.442808745, 5429.104549551, 18918.87214682, 18918.87214682, 10810.53559622, 5407.098668514, 5403.436927708, 0, 0.006188172952532, -0.07343087159468, -0, -0, -0, -0, -0.07309625351263, -0.07343087159468, 0.001897819778787, 0, 0, 0, 0, -5.17476687981e-05, -0.0006905940294444, 0.001897821337396, 0.005656860238591, -0.0006905934622853, -0.002032377972505, -0.0006905934622853, 4.983575795111, 4.993489351133, 4.983878001532, 4.993821234882, 15.97870909615, -0.06190612206083, 0, 0.02146817401731, 0, -1.556371565429, 69.56820330236, 70, 69.56828556311, 15.97760243696, 10.9774338603, 15.97865435234, 10.97863539573, 15.97870909615, 15.97805562412, 10.97803462459, 15.97760241089, 10.97751956234, 15.97865433586, 10.97854968683, 0.03168193110838, -0.03021699206816, 0.03168104603607, 0.05314751800189, 0.03168104603607, 1.021222002302, 1.089890298656, -1.008844855434, -1.083109369315, 0.006188172952532, 0.00617272208671, 0.003396665681604, 1.021172567808, 0.934896523215, -1.008827094944, -0.9281031918518, -0, -0, -0, -0, -0.00919914363957, 0.5006906545406, 0.5144731930865, 0.5006997012269, 0.5144619655962, 0.5006950281066, 0.5144844205768
0.85, 0.05160433280851, 0, -0.004267127715107, -0.004267097954877, -0.03171667695137, 0, -0.004267276810507, -0.004267306573231, -0.02490646631273, -0.0006867427338366, 0, -113.5305757747, 554.2853913577, -113.1915768018, 555.138194818, -159.2820641656, 9.417175494536, 98.66346319546, 9.374032008972, 18921.49168478, 18921.49168478, 10828.19070528, 5412.13287211, 5416.057833166, 18926.52785348, 18926.52785348, 10781.01520561, 5392.470083334, 5388.545122278, 0, 0.006365782104665, -0.07309356874339, -0, -0, -0, -0, -0.07268285142265, -0.07309356874339, 0.001952096539911, 0, 0, 0, 0, -4.148337421146e-05, -0.0007402366236473, 0.001952098128402, 0.005693431711927, -0.0007402360212909, -0.001991129554567, -0.0007402360212909, 5.134257458604, 5.144866575358, 5.134554773344, 5.145196324897, 16.4618056981, -0.06219649765544, 0, 0.02113390513345, 0, -1.564382736604, 69.56539690054, 70, 69.56559242091, 16.46071249525, 11.46054417766, 16.46174341511, 11.46172440436, 16.4618056981, 16.46115522277, 11.4611342874, 16.46071246827, 11.46062835957, 16.46174339925, 11.46164021523, 0.03112013997182, -0.03106914522268, 0.03111919563486, 0.05225152213388, 0.03111919563486, 1.021399500075, 1.090115645799, -1.008667326265, -1.082884033873, 0.006365782104665, 0.006349896882203, 0.003622452911401, 1.021349746719, 0.9351223154408, -1.008649926507, -0.927877409618, -0, -0, -0, -0, -0.009210756010677, 0.5006830785179, 0.5144874474288, 0.5006923529517, 0.5144754128625, 0.5006872161737, 0.514499481995
0.875, 0.05136916818135, 0, -0.003402936257211, -0.003402908144735, -0.03189544596564, 0, -0.00340307709864, -0.003403105213908, -0.02950099596358, -0.0007355253298395, 0, -114.034879954, 569.3533276951, -113.7180089472, 570.1264240745, -159.0741339884, 7.739388257581, 98.93661705497, 7.699922903794, 18933.00604619, 18933.00604619, 10796.3867615, 5396.040063004, 5400.346698493, 18937.93561866, 18937.93561866, 10744.62378139, 5374.465208441, 5370.158572952, 0, 0.006534385225944, -0.07259980232582, -0, -0, -0, -0, -0.07210388620216, -0.07259980232582, 0.001945727280316, 0, 0, 0, 0, -4.588024184496e-05, -0.0008122193400147, 0.001945728842304, 0.00569946330853, -0.0008122186879827, -0.001979025179782, -0.0008122186879827, 5.284933457244, 5.296257170496, 5.285224616728, 5.296583804989, 16.94488159852, -0.06231652380326, 0, 0.02095728742056, 0, -1.568299908075, 69.56302654066, 70, 69.56324074465, 16.9438050511, 11.94363747954, 16.9448113315, 11.94479188344, 16.94488159852, 16.94423550802, 11.94421467761, 16.9438050234, 11.94371981924, 16.94481131599, 11.94470953598, 0.03043935151064, -0.03187000066922, 0.03043832234325, 0.05139414808389, 0.03043832234325, 1.021568224733, 1.090342865244, -1.008498559235, -1.082656828336, 0.006534385225944, 0.00651856492931, 0.003850312017447, 1.021518419838, 0.9353501804774, -1.008481265654, -0.9276495564425, -1.110223024625e-16, -0, -0, -0, -0.009229659118116, 0.5006713888541, 0.5145048441976, 0.5006806035982, 0.5144916393557, 0.5006755756007, 0.5145180490394
0.9, 0.05112728820897, 0, -0.002484337022655, -0.002484313543966, -0.03208980993302, 0, -0.002484454649994, -0.00248447813135, -0.03374785712561, -0.0007801374358949, 0, -114.5158542546, 584.5731569403, -114.220957973, 585.289375577, -158.6801951861, 5.999628786494, 99.40412034195, 5.965015669323, 18947.77477124, 18947.77477124, 10783.00030517, 5389.122258735, 5393.878046438, 18952.23840222, 18952.23840222, 10725.83880523, 5365.297296469, 5360.541508766, 0, 0.006694229344185, -0.07216881708965, -0, -0, -0, -0, -0.07159537580421, -0.07216881708965, 0.001894625192007, 0, 0, 0, 0, -5.915950957626e-05, -0.0008969281756641, 0.001894626694967, 0.005682200270676, -0.0008969274641532, -0.001991154068106, -0.0008969274641532, 5.435605219, 5.447662304356, 5.435889038193, 5.447985019416, 17.4279436482, -0.06227928813948, 0, 0.02094683136309, 0, -1.56836269846, 69.56109159398, 70, 69.56123902564, 17.42688487844, 12.42671844686, 17.42786316685, 12.42784283452, 17.4279436482, 17.42730138072, 12.42728063652, 17.42688485017, 12.42679864522, 17.42786315149, 12.42776262783, 0.02964800989361, -0.03262417061271, 0.029646880138, 0.05059234981218, 0.029646880138, 1.021728353163, 1.09057138365, -1.008338397697, -1.082428325717, 0.006694229344185, 0.006678839818324, 0.004079583326132, 1.021678700616, 0.9355794585122, -1.008320998636, -0.92742029186, -0, -0, -0, -0, -0.009254080256177, 0.5006565609379, 0.5145130511843, 0.5006655334856, 0.514498469169, 0.5006609809199, 0.5145276331996
0.925, 0.05090365497363, 0, -0.001516736543566, -0.001516720562273, -0.03228211034476, 0, -0.001516816609763, -0.001516832593081, -0.03762578641252, -0.0008244102255373, 0, -114.9003511398, 599.9051790712, -114.6300488641, 600.5946561524, -158.1957204738, 4.177601045822, 99.97298956886, 4.150003303587, 18963.26098825, 18963.26098825, 10797.91016153, 5396.351801737, 5401.558359797, 18967.27581564, 18967.27581564, 10735.33069273, 5370.268625393, 5365.062067333, 0, 0.00684592060675, -0.07194394193635, -0, -0, -0, -0, -0.07131181007459, -0.07194394193635, 0.001832424917123, 0, 0, 0, 0, -7.060620610522e-05, -0.0009819421914394, 0.001832426361697, 0.005654101245697, -0.0009819414173358, -0.002015955733295, -0.0009819414173358, 5.586274048615, 5.599081984084, 5.586549428475, 5.599400125943, 17.91099740028, -0.06210185863121, 0, 0.02109279780823, 0, -1.564867648506, 69.5595991615, 70, 69.5596461433, 17.90995612799, 12.90979114925, 17.91090334219, 12.91088166681, 17.91099740028, 17.91035712037, 12.9103364036, 17.90995609924, 12.9098689314, 17.91090332686, 12.91080387581, 0.02875505548623, -0.03333975264305, 0.02875382250233, 0.04984533853509, 0.02875382250233, 1.021880321592, 1.090800754417, -1.008186413316, -1.082198972265, 0.00684592060675, 0.006831048790853, 0.004309708749796, 1.021830916142, 0.9358095913128, -1.008168798073, -0.9271901738132, -0, -0, 1.110223024625e-16, -0, -0.009280194019955, 0.5006409905429, 0.5145068262371, 0.5006497312477, 0.5144908620869, 0.5006456366129, 0.5145227903873
0.95, 0.0507005909749, 0, -0.0005252154023266, -0.0005252093554789, -0.03245677534412, 0, -0.0005252456971789, -0.0005252517448635, -0.04111318806845, -0.0008701871588138, 0, -115.1727108998, 614.969016587, -114.9320130451, 615.6489509622, -157.6701467349, 2.284092195567, 100.5601426785, 2.265900314025, 18975.58394634, 18975.58394634, 10831.06040502, 5412.72445451, 5418.335950506, 18979.53308129, 18979.53308129, 10763.61384347, 5384.612669733, 5379.001173738, 0, 0.006990112680826, -0.07193382898602, -0, -0, -0, -0, -0.07126067630047, -0.07193382898602, 0.001794246944759, 0, 0, 0, 0, -6.991754105533e-05, -0.001058312345775, 0.001794248358838, 0.005627268254914, -0.0010583115117, -0.002040114906244, -0.0010583115117, 5.736940958579, 5.750515512059, 5.73720689437, 5.750828529427, 18.39404609027, -0.06180368257588, 0, 0.0213624924232, 0, -1.558131456921, 69.5585508407, 70, 69.55852077864, 18.39302182678, 13.39285856417, 18.39393512987, 13.39391171785, 18.39404609027, 18.39340588825, 13.3933851364, 18.39302179758, 13.39293368097, 18.39393511458, 13.39383659184, 0.02776997270974, -0.03402669379734, 0.02776864401782, 0.04912992060609, 0.02776864401782, 1.022024599959, 1.091030469681, -1.008042125799, -1.081969275482, 0.006990112680826, 0.006975555799597, 0.004540100274602, 1.02197543021, 0.9360399907158, -1.008024299901, -0.9269597901666, -0, -0, -0, -0, -0.009302057996943, 0.5006284519536, 0.5144911544407, 0.5006371568238, 0.5144739486852, 0.5006331291915, 0.5145083601962
