Time,Alpha_L1i,Alpha_L1o,Alpha_L2i,Alpha_L2o,Alpha_R1i,Alpha_R1o,Alpha_R2i,Alpha_R2o,AVz,Ay,Bk_Stat,Fx_L1,Fx_L2,Fx_R1,Fx_R2,Fy_L1,Fy_L2,Fy_R1,Fy_R2,Fz_L1,Fz_L1i,Fz_L2,Fz_L2i,Fz_L2o,Fz_R1,Fz_R1i,Fz_R2,Fz_R2i,Fz_R2o,Lat_Targ,Lat_Veh,Pitch,PitchGL1,PitchGL2,PitchGR1,PitchGR2,Pitch_A1,Pitch_A2,Roll,RollGL1,RollGL2,RollGR1,RollGR2,Roll_A1,Roll_A2,Roll_E,Roll_L1,Roll_L2,Roll_R1,Roll_R2,Rot_L1,Rot_L2,Rot_R1,Rot_R2,Station,Steer_L1,Steer_L2,Steer_R1,Steer_R2,Steer_SW,Vx,VxTarget,Vxz_Fwd,Xctc_L1o,Xctc_L2o,Xctc_R1o,Xctc_R2o,Xo,X_A1,X_A2,X_L1,X_L2,X_R1,X_R2,Yaw,Yaw_L1,Yaw_L2,Yaw_R1,Yaw_R2,Yctc_L1o,Yctc_L2o,Yctc_R1o,Yctc_R2o,Yo,Y_A1,Y_A2,Y_L1,Y_L2,Y_R1,Y_R2,Zgnd_L1o,Zgnd_L2o,Zgnd_R1o,Zgnd_R2o,Zo,Z_A1,Z_A2,Z_L1,Z_L2,Z_R1,Z_R2
            0,             0,             0,             0,             0,             0,             0,             0,             0,             0, -6.81661900671e-33,             0, 3.78685728608e-11,             0, 3.78685728608e-11,             0,             0,             0,             0,             0, 19050.9921875, 19050.9921875, 10575.9619141, 5287.98095703, 5287.98095703, 19050.9921875, 19050.9921875, 10575.9619141, 5287.98095703, 5287.98095703,             0,             0, -0.068251863122,             0,             0,             0,             0, -0.068251863122, -0.068251863122,             0,             0,             0,             0,             0,             0,             0,             0,             0,             0,             0,             0, -0.000189588521607, -0.000189588521607, -0.000189588521607, -0.000189588521607,             0,             0,             0,             0,             0,             0,            70,            70,            70, -0.00060752191348, -5.00062799454, -0.00060752191348, -5.00062799454,             0, -0.00060752191348, -5.00062799454, -0.00060752191348, -5.00062799454, -0.00060752191348, -5.00062799454,             0, 1.60265325181e-15,             0, -1.60265325181e-15,             0, 1.01499998569, 1.08650004864, -1.01499998569, -1.08650004864,             0, 4.23230009833e-22, 5.31699984742e-21, 1.01499998569, 0.931500017643, -1.01499998569, -0.931500017643,             0,             0,             0,             0, -0.00943942554295, 0.500560224056, 0.514604091644, 0.500560224056, 0.514604091644, 0.500560224056, 0.514604091644
        0.025, 0.00438977964222,             0, 0.00123656587675, 0.00123656704091, -0.0794634446502,             0, 0.00123656005599, 0.00123655889183, 0.00336800818332, 0.00201412150636,             0, -102.644798279, -51.1651115417, -102.68170929, -51.6700782776, -6.55631875992, -1.0554639101, 128.256286621, -1.0561401844, 19031.7050781, 19031.7050781, 10599.6669922, 5300.18847656, 5299.47802734, 19069.8515625, 19069.8515625, 10608.2080078, 5303.74853516, 5304.45898438,             0, 8.41033215693e-06, -0.0684946775436,             0,             0,             0,             0, -0.0703043118119, -0.0684946775436, 0.000264681206318,             0,             0,             0,             0, 0.00146291987039, 0.00013401756587, 0.000264681410044, 0.00162981031463, 0.000134017478558, -0.0060976925306, 0.000134017478558, 0.151427641511, 0.151459485292, 0.151426434517, 0.151459574699, 0.486050873995, -0.00180946767796,             0, 0.0820528864861,             0, -0.00171379046515, 69.9807891846,            70, 69.9806213379, 0.485443770885, -4.51457977295, 0.485585033894, -4.51457834244, 0.486050873995, 0.485441178083, -4.51457929611, 0.485443770885, -4.51457977295, 0.485584944487, -4.51457881927, 3.10080431518e-05, -0.00177651259582, 3.11682561005e-05, 0.0820766687393, 3.11682561005e-05, 1.01501917839, 1.08650398254, -1.01504826546, -1.08649599552, 8.41033215693e-06, 4.94559390063e-06, 2.81091524812e-06, 1.01500499249, 0.931502819061, -1.0149949789, -0.931497216225,             0,             0,             0,             0, -0.00944659579545, 0.500553667545, 0.514589846134, 0.500579893589, 0.514591991901, 0.500540971756, 0.514587640762
         0.05, 0.00867408234626,             0, 0.00248762220144, 0.00248762965202, -0.0717855989933,             0, 0.00248758518137, 0.00248757773079, 0.0106668518856, 0.00263978121802,             0, -101.997146606, -94.0872344971, -102.913589478, -95.4023742676, -14.3260478973, -3.60688304901, 178.397674561, -3.61929059029, 19031.1035156, 19031.1035156, 10668.0136719, 5335.77734375, 5332.23681641, 19095.9277344, 19095.9277344, 10710.5683594, 5353.51416016,  5357.0546875,             0, 4.82056966575e-05, -0.0689105093479,             0,             0,             0,             0, -0.0707527548075, -0.0689105093479, 0.00139717326965,             0,             0,             0,             0, 0.00220816093497, 0.000667725456879, 0.00139717431739, 0.00245321891271, 0.00066772493301, -0.00496262079105, 0.00066772493301, 0.302992522717, 0.303011059761, 0.30298936367, 0.303012043238, 0.971963047981, -0.00265678390861,             0, 0.0778115689754,             0, -0.0106783825904, 69.9596176147,            70, 69.9594497681, 0.971350669861, -4.02867460251, 0.971489131451, -4.02866697311, 0.971963047981, 0.971349656582, -4.02867078781, 0.971350669861, -4.02867412567, 0.971489071846, -4.02866744995, 0.000201194226975, -0.00245264102705, 0.000201997318072, 0.0780068486929, 0.000201997318072,  1.0150564909, 1.08652126789, -1.01500821114, -1.08647871017, 4.82056966575e-05, 3.50165901182e-05, 1.5238787455e-05, 1.01503503323, 0.931515216827, -1.01496493816, -0.931484758854,             0,             0,             0,             0, -0.00946540664881, 0.500540971756, 0.514546275139, 0.500580489635, 0.514557123184, 0.50051432848, 0.514535427094
        0.075, 0.0120094036683,             0, 0.00282983202487, 0.00282984762453, -0.0675275921822,             0, 0.00282975402661, 0.00282973842695, 0.0197123009712, 0.00270160380751,             0, -100.986465454, -126.49760437, -102.260643005, -128.509567261, -24.2685947418, -5.27523136139, 195.554016113, -5.31473064423, 19033.3925781, 19033.3925781, 10703.4785156, 5355.31738281, 5348.16113281, 19122.0136719, 19122.0136719, 10789.4921875, 5391.16796875, 5398.32421875,             0, 0.00012161925406, -0.069137275219,             0,             0,             0,             0, -0.0711504369974, -0.069137275219, 0.00315849855542,             0,             0,             0,             0, 0.00288225826807, 0.00134965975303, 0.00315850088373, 0.00319921527989, 0.00134965882171, -0.004132327158, 0.00134965882171, 0.454508900642, 0.454470455647, 0.454505473375, 0.454474121332, 1.45772075653, -0.00343604641967,             0, 0.0761093273759,             0, -0.028958555311, 69.9373168945,            70, 69.9373168945, 1.45710110664, -3.54292607307, 1.45724856853, -3.54290413857, 1.45772075653, 1.45710539818, -3.54291510582, 1.45710110664, -3.54292464256, 1.45724856853, -3.5429058075, 0.000578820530791, -0.00285336794332, 0.000580449122936, 0.0766832157969, 0.000580449122936, 1.01512169838, 1.08654785156, -1.0149422884, -1.0864521265, 0.00012161925406, 9.37533695833e-05, 3.57269855158e-05, 1.01509380341, 0.931535720825, -1.01490616798, -0.931464254856,             0,             0,             0, -1.11022302463e-16, -0.00948938261718, 0.500526547432, 0.514517128468, 0.500578165054, 0.514539062977, 0.500487744808, 0.514495134354
          0.1, 0.014390071854,             0, 0.00194527441636, 0.00194529024884, -0.0650405660272,             0, 0.00194519502111, 0.00194517918862, 0.0291971340775, 0.00261727930047,             0, -100.609863281, -141.82270813, -102.03074646, -144.163513184, -33.794631958, -4.85820674896, 199.423660278, -4.9159693718, 19037.1308594, 19037.1308594, 10674.8574219, 5342.53417969, 5332.32275391, 19142.6445312, 19142.6445312, 10797.5869141, 5393.68798828, 5403.89892578,             0, 0.000217363543925, -0.0688713267446,             0,             0,             0,             0, -0.0709556862712, -0.0688713267446, 0.00483721168712,             0,             0,             0,             0, 0.00335955922492, 0.00192576705012, 0.00483721494675, 0.00376501423307, 0.00192576565314, -0.00355659308843, 0.00192576565314, 0.605974137783, 0.60585051775, 0.605973005295, 0.605859398842, 1.94331240654, -0.00439563719556,             0, 0.0750430971384,             0, -0.0558607690036, 69.9143218994,            70, 69.9145507812, 1.94268584251, -3.05734372139, 1.94285142422, -3.05729842186, 1.94331240654, 1.94269931316, -3.05732107162, 1.94268584251, -3.05734062195, 1.94285142422, -3.05730175972, 0.00119019765407, -0.00320091703907, 0.00119251245633, 0.0762290731072, 0.00119251245633, 1.01520860195, 1.08657610416, -1.01485526562, -1.0864238739, 0.000217363543925, 0.00017565926828, 5.88300645177e-05, 1.01517570019, 0.931558847427, -1.0148242712, -0.931441187859,             0, 1.11022302463e-16,             0,             0, -0.00951119139791, 0.500514149666, 0.514522314072, 0.500574350357, 0.514553666115, 0.500466704369, 0.514491021633
        0.125, 0.0160212777555,             0, 0.000292949000141, 0.000292952143354, -0.0635080263019,             0, 0.00029293334228, 0.000292930199066, 0.038306389004, 0.00254954001866,             0, -100.922935486, -137.741653442, -102.330856323, -139.968887329, -41.5543670654, -2.52988314629, 198.620147705, -2.57298183441, 19042.7050781, 19042.7050781, 10598.5009766, 5305.03271484,    5293.46875, 19153.7304688, 19153.7304688, 10737.4931641, 5362.96435547, 5374.52832031,             0, 0.000323172076605, -0.06816316396,             0,             0,             0,             0, -0.0701989158988, -0.06816316396, 0.00577023718506,             0,             0,             0,             0, 0.0035078835208, 0.0021809337195, 0.00577024137601, 0.00402331352234, 0.00218093232252, -0.00330648687668, 0.00218093232252, 0.757387042046, 0.757170855999, 0.757390856743, 0.757187724113, 2.42873549461, -0.00558878062293,             0, 0.0739483460784,             0, -0.0898877233267, 69.8911590576,            70, 69.8915176392, 2.42810249329, -2.57193017006, 2.42829394341, -2.57185268402, 2.42873549461, 2.42812871933, -2.57189130783, 2.42810249329, -2.57192444801, 2.42829394341, -2.57185816765, 0.00203557265922, -0.00354842585512, 0.00203816709109, 0.0759800300002, 0.00203816709109, 1.01530897617, 1.08659946918, -1.0147548914, -1.08640050888, 0.000323172076605, 0.000273879239103, 7.9918972915e-05, 1.01527392864, 0.931579947472, -1.01472604275, -0.931420087814,             0,             0,             0,             0, -0.00952810794115, 0.500505626202, 0.514557123184, 0.500568687916, 0.514592587948, 0.500455379486, 0.514521658421
         0.15, 0.0175065025687,             0, -0.0014869273873, -0.00148694671225, -0.0621373094618,             0, -0.001486830879, -0.00148681155406, 0.0465070419014, 0.00251402589492,             0, -101.718482971, -115.912437439, -103.00189209, -117.722602844, -47.7327079773, 0.744069635868, 196.201751709, 0.738968014717,  19052.578125,  19052.578125, 10526.7050781, 5268.71777344, 5257.98730469, 19156.9140625, 19156.9140625, 10655.6806641, 5322.47509766, 5333.20556641,             0, 0.000432939763414, -0.0673777684569,             0,             0,             0,             0, -0.0692812651396, -0.0673777684569, 0.00566798169166,             0,             0,             0,             0, 0.00330270989798, 0.00202377187088, 0.00566798588261, 0.00394976697862, 0.0020237704739, -0.00338948960416, 0.0020237704739, 0.90874838829, 0.908454239368, 0.908759772778, 0.908481419086, 2.91399765015, -0.00701733538881,             0, 0.0726340562105,             0, -0.129854202271, 69.8683929443,            70, 69.8686828613, 2.91335535049, -2.08668088913, 2.91357970238, -2.08656334877, 2.91399765015, 2.91339802742, -2.08662199974, 2.91335535049, -2.08667254448, 2.91357970238, -2.08657169342, 0.00309804338031, -0.00391465239227, 0.00310042314231, 0.0757281631231, 0.00310042314231, 1.01541912556, 1.08661592007, -1.01464486122,  -1.086384058, 0.000432939763414, 0.000384641170967, 9.77170348051e-05, 1.01538467407, 0.931597709656, -1.01461529732, -0.931402266026, -1.11022302463e-16,             0, -1.11022302463e-16,             0, -0.009541538544, 0.500498950481, 0.51459634304, 0.500558614731, 0.514629244804, 0.500452101231, 0.514563441277
        0.175, 0.0194356683642,             0, -0.0028283954598, -0.00282843760215, -0.0603454858065,             0, -0.00282818404958, -0.00282814190723, 0.0535408183932, 0.00246000825427,             0, -102.693115234, -80.0972061157, -103.789848328, -81.4559020996, -53.4134788513, 3.76367640495, 192.682128906, 3.78750967979, 19066.8769531, 19066.8769531, 10511.7216797, 5259.99121094, 5251.72998047, 19155.3984375, 19155.3984375, 10611.0185547, 5301.37841797, 5309.64013672,             0, 0.000548512558453, -0.0669494345784,             0,             0,             0,             0, -0.0686916783452, -0.0669494345784, 0.00469516124576,             0,             0,             0,             0, 0.00283287419006, 0.00155808974523, 0.00469516450539, 0.00363238761202, 0.00155808869749, -0.0037189067807, 0.00155808869749,  1.0600605011, 1.05972242355, 1.06008172035, 1.05976176262, 3.39911079407, -0.00867185741663,             0, 0.0711166858673,             0, -0.175313711166, 69.8464889526,            70, 69.8465576172, 3.39845275879, -1.60158765316,  3.3987159729, -1.60142254829, 3.39911079407, 3.39851474762, -1.60150516033, 3.39845275879, -1.60157585144,  3.3987159729, -1.60143435001, 0.00435126014054, -0.00431635929272, 0.00435308087617, 0.0754636451602, 0.00435308087617, 1.01554012299, 1.08662867546,  -1.014523983, -1.08637142181, 0.000548512558453, 0.000508395198267, 0.000114638038212, 1.01550841331, 0.931614637375, -1.01449155807, -0.931385338306,             0,             0,             0,             0, -0.0095534613356, 0.50049239397, 0.514611542225, 0.500544011593, 0.514636874199, 0.500453650951, 0.514586210251
          0.2, 0.0220795739442,             0, -0.00351685541682, -0.00351691362448, -0.0579171329737,             0, -0.00351656391285, -0.00351650570519, 0.0593444742262, 0.00233761011623,             0, -103.587158203, -35.8837051392, -104.486633301, -36.9283981323, -59.7923851013, 5.81791543961, 187.736480713, 5.84656524658, 19081.5488281, 19081.5488281, 10568.9853516, 5287.09912109, 5281.88623047, 19150.8671875, 19150.8671875, 10631.6416016, 5313.21386719, 5318.42724609,             0, 0.000677237228956, -0.0671112462878,             0,             0,             0,             0, -0.0687066465616, -0.0671112462878, 0.00333759654313,             0,             0,             0,             0, 0.00226375157945, 0.000983142759651, 0.00333759887144, 0.00323636853136, 0.000983142177574, -0.00413502659649, 0.000983142177574, 1.21132624149, 1.21099257469, 1.21135938168, 1.21104538441, 3.88408613205, -0.0105496123433,             0, 0.0694543421268,             0, -0.226403102279, 69.8257904053,            70,  69.825592041, 3.88340473175, -1.11664068699,  3.8837120533, -1.11642193794, 3.88408613205, 3.88348865509, -1.11653137207, 3.88340473175, -1.11662507057,  3.8837120533, -1.11643755436, 0.0057648406364, -0.00478098820895, 0.0057659917511, 0.0752143859863, 0.0057659917511, 1.01567673683, 1.08664405346, -1.01438760757, -1.08635592461, 0.000677237228956, 0.000648459885269, 0.000135210706503, 1.01564848423, 0.931635200977, -1.01435148716, -0.931364774704,             0, -1.11022302463e-16,             0,             0, -0.00956238619983, 0.500487208366, 0.514591693878, 0.500529050827, 0.514607667923, 0.500458300114, 0.514575719833
        0.225, 0.0253319405019,             0, -0.00371874729171, -0.00371881364845, -0.0549763925374,             0, -0.00371841457672, -0.00371834821999, 0.0640003755689, 0.00212401873432,             0, -104.27456665, 9.89458179474, -105.006088257, 9.03340244293, -67.5511016846, 6.68576383591,  181.14050293, 6.68512678146, 19089.4824219, 19089.4824219, 10666.6640625, 5334.66064453, 5332.00390625, 19142.1953125, 19142.1953125,   10698.59375,    5347.96875, 5350.62548828,             0, 0.000827376148663, -0.0677667558193,             0,             0,             0,             0, -0.0692459046841, -0.0677667558193, 0.00215402292088,             0,             0,             0,             0, 0.00176775211003, 0.000501011032611, 0.00215402455069, 0.002934737131, 0.000501010683365, -0.00446635577828, 0.000501010683365,  1.3625484705, 1.36227273941, 1.36259508133, 1.36234021187, 4.36893081665, -0.012656875886,             0, 0.0676586031914,             0, -0.283392339945, 69.8064346313,            70, 69.8060913086, 4.36822032928, -0.631831169128, 4.36857509613, -0.631553947926, 4.36893081665, 4.36832761765, -0.631692588329, 4.36822032928, -0.631811380386, 4.36857509613, -0.631573736668, 0.00730878673494, -0.00534462695941, 0.0073093790561, 0.0749621540308, 0.0073093790561, 1.01583409309, 1.08666837215, -1.01423048973, -1.08633160591, 0.000827376148663, 0.000808481650893, 0.000163933218573,  1.0158084631, 0.931663930416, -1.01419138908, -0.931336045265, 1.11022302463e-16,             0,             0, -1.11022302463e-16, -0.0095623107627, 0.500487565994, 0.514549672604, 0.500520944595, 0.51455783844, 0.500467121601, 0.514541506767
         0.25, 0.0288177859038,             0, -0.00370542122982, -0.00370549131185, -0.0518514290452,             0, -0.00370507105254, -0.00370500120334, 0.0676047578454, 0.00185145123396,             0, -104.836883545, 54.3058280945, -105.43724823, 53.6342926025, -76.6012268066, 7.11434936523, 173.142471313, 7.12360715866, 19083.9023438, 19083.9023438, 10747.1269531, 5374.23974609, 5372.88720703, 19126.5761719, 19126.5761719, 10763.3857422, 5381.01660156, 5382.36914062,             0, 0.00100389530417, -0.0685870721936,             0,             0,             0,             0, -0.0699595063925, -0.0685870721936, 0.00154252722859,             0,             0,             0,             0, 0.00145908340346, 0.000255118968198, 0.00154252839275, 0.00284183793701, 0.000255118793575, -0.00459375279024, 0.000255118793575, 1.51372945309, 1.51356434822, 1.51379096508, 1.51364767551, 4.85364866257, -0.0149954613298,             0, 0.0656808316708,             0, -0.346227526665, 69.7884216309,            70, 69.7880859375, 4.85290575027, -0.147151991725,  4.8533115387, -0.146812319756, 4.85364866257,   4.853038311, -0.14698214829, 4.85290575027, -0.147127762437,  4.8533115387, -0.146836549044, 0.00895602721721, -0.00603604316711, 0.00895633269101, 0.0746314078569, 0.00895633269101, 1.01601493359, 1.08670580387, -1.01404988766, -1.08629405499, 0.00100389530417, 0.00099014560692, 0.00020358528127, 1.01599013805, 0.931703567505, -1.01400971413, -0.931296408176,             0,             0,             0,             0, -0.00954574625939, 0.500498354435, 0.514512598515, 0.500526607037, 0.51451677084, 0.500483095646, 0.514508485794
        0.275, 0.0320639275014,             0, -0.00392078282312, -0.00392085965723, -0.0489545986056,             0, -0.00392039725557, -0.00392032042146, 0.0702671259642, 0.0015516433632,             0, -105.364326477, 93.4805603027, -105.882240295, 92.9986724854, -86.2282104492, 7.36185121536, 164.438415527, 7.37185335159, 19062.1601562, 19062.1601562, 10767.5273438, 5384.43847656, 5383.08886719, 19102.2734375, 19102.2734375, 10783.7480469, 5391.19921875, 5392.54882812,             0, 0.00120635749772, -0.0692475512624,             0,             0,             0,             0, -0.0705016925931, -0.0692475512624, 0.0016146954149,             0,             0,             0,             0, 0.00136371632107, 0.000254522834439, 0.00161469657905, 0.00298227043822, 0.000254522630712, -0.00448652543128, 0.000254522630712, 1.66487133503, 1.66486501694, 1.66494894028, 1.66496491432, 5.33824300766, -0.0175513606519,             0, 0.0634742379189,             0, -0.414235442877, 69.7716598511,            70, 69.7714309692, 5.33746814728, 0.337403714657, 5.33792686462, 0.337808847427, 5.33824300766, 5.33762693405, 0.337606281042, 5.33746814728, 0.33743262291, 5.33792686462, 0.337779939175, 0.0106812128797, -0.0068665551953, 0.0106815211475, 0.0741500779986, 0.0106815211475, 1.01621818542, 1.08675682545, -1.01384699345, -1.08624315262, 0.00120635749772, 0.00119210127741, 0.000254561105976, 1.01619207859, 0.931754529476, -1.01380777359, -0.931245446205,             0,             0,             0,             0, -0.00950880162418, 0.500521838665, 0.514502227306, 0.500548839569, 0.514506340027, 0.500507891178, 0.514498114586
          0.3, 0.034710675478,             0, -0.00459205545485, -0.00459214765579, -0.0466016680002,             0, -0.00459159258753, -0.00459149992093, 0.07206017524, 0.00128181534819,             0, -105.909957886, 126.242980957, -106.369377136, 125.938102722, -95.4274368286, 8.13723945618, 155.982269287, 8.15666770935, 19028.1582031, 19028.1582031, 10725.8066406, 5364.05712891, 5361.74951172, 19070.8847656, 19070.8847656, 10753.5478516, 5375.61962891, 5377.92773438,             0, 0.00142902042717, -0.0696316659451,             0,             0,             0,             0, -0.0707508400083, -0.0696316659451, 0.00218922318891,             0,             0,             0,             0, 0.00141550670378, 0.000435285939602, 0.00218922481872, 0.00328654958867, 0.00043528561946, -0.00420992868021, 0.00043528561946,  1.8159763813, 1.81617033482, 1.81607103348, 1.81628775597, 5.82272005081, -0.0202890280634,             0, 0.0610304586589,             0, -0.486163854599, 69.7559661865,            70, 69.7558441162, 5.82191514969, 0.821843504906, 5.82242774963, 0.822316169739, 5.82272005081, 5.82210016251, 0.822079837322, 5.82191514969, 0.821877241135, 5.82242774963, 0.82228243351, 0.0124621009454, -0.00782294850796, 0.0124626299366, 0.073487482965, 0.0124626299366, 1.01643884182,  1.0868190527, -1.01362657547, -1.08618092537, 0.00142902042717, 0.00141011446249, 0.00031513691647, 1.01641011238, 0.931815087795, -1.0135897398, -0.931184828281, 1.11022302463e-16, 1.11022302463e-16, -1.11022302463e-16,             0, -0.00945492647588, 0.500555157661, 0.514520585537, 0.500583529472, 0.51452767849, 0.500539898872, 0.514513492584
        0.325, 0.0366365127265,             0, -0.00576726859435, -0.005767385941, -0.0449112467468,             0, -0.00576667953283, -0.00576656218618, 0.0729668736458, 0.00108193070628,             0, -106.433792114, 152.912826538, -106.834693909, 152.729431152, -103.369064331, 9.79651355743, 148.611099243, 9.83214664459, 18991.0097656, 18991.0097656, 10660.2978516, 5331.90820312, 5328.39013672, 19037.6230469, 19037.6230469, 10702.5830078, 5349.53222656, 5353.05029297,             0, 0.0016632953193, -0.0698671638966,             0,             0,             0,             0, -0.0708521381021, -0.0698671638966, 0.00291424593888,             0,             0,             0,             0, 0.00150252319872, 0.000663494400214, 0.00291424803436, 0.00363765400834, 0.000663493876345, -0.0038809098769, 0.000663493876345, 1.96704721451, 1.96747672558, 1.96715962887, 1.96761167049, 6.30708885193, -0.023153077811,             0, 0.058402005583,             0, -0.560412466526, 69.7411422729,            70, 69.7410354614,  6.3062543869, 1.30617558956, 6.30682182312, 1.30671703815, 6.30708885193, 6.30646705627, 1.30644631386,  6.3062543869, 1.30621421337, 6.30682182312, 1.30667841434, 0.0142768295482, -0.00887183006853, 0.0142776388675, 0.0726741477847, 0.0142776388675, 1.01667022705, 1.08688855171, -1.01339530945, -1.08611142635, 0.0016632953193, 0.00163850642275, 0.000382628437364, 1.01663851738, 0.931882619858, -1.0133613348, -0.931117355824,             0,             0, -1.11022302463e-16,             0, -0.00939462240785, 0.500591099262, 0.51455026865, 0.500621438026, 0.514561057091, 0.50057387352, 0.514539480209
         0.35, 0.0379709601402,             0, -0.00724852783605, -0.00724867545068, -0.0437811724842,             0, -0.00724778790027, -0.00724764028564, 0.0729402303696, 0.000962514663115,             0, -106.852058411, 174.913421631, -107.174827576, 174.784240723, -109.694038391, 12.2589054108, 142.767059326, 12.3131465912, 18960.7890625, 18960.7890625, 10622.0234375, 5313.16064453, 5308.86279297, 19008.9179688, 19008.9179688, 10673.6796875, 5334.69091797, 5338.98876953,             0, 0.00190091889817, -0.0701826289296,             0,             0,             0,             0, -0.0710611343384, -0.0701826289296, 0.00343465059996,             0,             0,             0,             0, 0.00152055674698, 0.000810546625871, 0.00343465316109, 0.00392533978447, 0.000810545985587, -0.00361258536577, 0.000810545985587, 2.11808609962, 2.11878037453, 2.11821675301, 2.11893296242, 6.79135847092, -0.0260770432651,             0, 0.0556827113032,             0, -0.63539069891, 69.7270355225,            70, 69.7268600464, 6.79049396515, 1.79040765762, 6.79111623764, 1.79101848602, 6.79135847092, 6.79073381424, 1.79071307182, 6.79049396515, 1.79045128822, 6.79111623764, 1.79097485542, 0.0161026567221, -0.00996959861368, 0.0161036495119, 0.0717809870839, 0.0161036495119, 1.01690626144, 1.08696210384, -1.01315951347, -1.08603787422, 0.00190091889817, 0.00187194242608, 0.000454812659882, 1.01687192917, 0.931954801083, -1.01312792301, -0.931045174599,             0,             0,             0,             0, -0.00934113655239, 0.500621140003, 0.514567434788, 0.500652253628, 0.514580607414,  0.5006031394, 0.514554262161
        0.375, 0.0389984920621,             0, -0.00873936805874, -0.00873954407871, -0.0429580882192,             0, -0.00873848795891, -0.00873831287026, 0.0719348117709, 0.000905726861674,             0, -107.120071411, 193.978866577, -107.337631226, 193.870681763, -114.574180603, 15.1212434769, 138.390808105, 15.1878376007, 18944.1035156, 18944.1035156, 10639.7822266, 5322.03564453, 5317.74658203, 18989.4296875, 18989.4296875, 10691.3349609, 5343.52294922, 5347.81201172,             0, 0.00213655596599, -0.0707022249699,             0,             0,             0,             0, -0.0715178400278, -0.0707022249699, 0.00353509094566,             0,             0,             0,             0, 0.0014142136788, 0.000808926881291, 0.00353509373963, 0.00408836593851, 0.000808926241007, -0.00346925645135, 0.000808926241007, 2.26909518242, 2.27007842064, 2.26924419403, 2.27024817467,  7.2755355835, -0.0289965495467,             0, 0.0529680401087,             0, -0.709833204746, 69.7135391235,            70, 69.7132797241, 7.27463960648, 2.27454590797,  7.2753162384, 2.27522540092,  7.2755355835, 7.27490663528, 2.27488565445, 7.27463960648, 2.27459454536,  7.2753162384, 2.27517700195, 0.0179156344384, -0.0110758924857, 0.0179166328162, 0.0708794295788, 0.0179166328162, 1.01714253426, 1.08703815937, -1.01292335987, -1.08596169949, 0.00213655596599, 0.00210685585625, 0.000530939141754, 1.01710677147, 0.932030916214, -1.01289308071, -0.930968999863,             0, -1.11022302463e-16,             0,             0, -0.00930477399379, 0.500639557838, 0.514558374882, 0.500669300556, 0.514571547508, 0.500623047352, 0.51454526186
          0.4, 0.040021199733,             0, -0.00995729770511, -0.00995749235153, -0.0421523228288,             0, -0.00995632261038, -0.00995612889528, 0.0699498876929, 0.000876620528288,             0, -107.284248352, 211.592758179, -107.378051758, 211.525146484, -118.552207947, 17.8602848053, 135.017608643,  17.923910141, 18941.9414062, 18941.9414062, 10702.3134766, 5352.89941406,  5349.4140625, 18980.3574219, 18980.3574219, 10744.2041016,   5370.359375, 5373.84472656,             0, 0.00236884993501, -0.0713293328881,             0,             0,             0,             0, -0.0721177309752, -0.0713293328881, 0.00320323067717,             0,             0,             0,             0, 0.00119022175204, 0.000657309836242, 0.00320323300548, 0.00412879418582, 0.000657309370581, -0.00344984931871, 0.000657309370581, 2.42007565498, 2.42136836052, 2.42024278641, 2.42155504227, 7.75962305069, -0.0318612083793,             0, 0.0503207221627,             0, -0.782946586609, 69.7005844116,            70, 69.7003250122, 7.75869512558,  2.7585940361, 7.75942516327, 2.75934100151, 7.75962305069, 7.75898838043,  2.7589673996, 7.75869512558, 2.75864744186, 7.75942516327, 2.75928759575, 0.0196911487728, -0.0121649447829, 0.0196919664741, 0.0700076147914, 0.0196919664741,  1.0173779726, 1.08711779118, -1.01268804073, -1.08588206768, 0.00236884993501, 0.00234198267572, 0.00061195140006,  1.0173419714, 0.932111918926, -1.01265788078, -0.93088799715,             0, -1.11022302463e-16,             0, -1.11022302463e-16, -0.00928920693696, 0.500645279884, 0.514528930187, 0.500671505928, 0.514539659023, 0.500632286072, 0.514518260956
        0.425, 0.041235819459,             0, -0.0107270851731, -0.0107272863388, -0.0411581844091,             0, -0.0107260784134, -0.0107258772478, 0.0670589357615, 0.000836519117001,             0, -107.471893311, 228.805419922, -107.441116333, 228.841827393, -122.269050598, 19.9682788849, 132.016098022, 20.0129985809,  18950.609375,  18950.609375, 10768.6064453, 5385.41210938, 5383.19384766, 18979.9140625, 18979.9140625, 10795.2666016, 5396.52441406, 5398.74267578,             0, 0.00259977369569, -0.0717986002564,             0,             0,             0,             0, -0.0725668519735, -0.0717986002564, 0.00260247848928,             0,             0,             0,             0, 0.000903583772015, 0.000418334879214, 0.00260248058476, 0.00409862305969, 0.000418334559072, -0.00350111396983, 0.000418334559072, 2.57102847099, 2.57264876366, 2.57121324539,  2.5728521347, 8.24361991882, -0.0346401445568,             0, 0.0477626137435,             0, -0.854373455048, 69.6881561279,            70, 69.6880264282, 8.24266147614, 3.24255394936, 8.24344348907, 3.24336576462, 8.24361991882, 8.24298095703, 3.24295973778, 8.24266147614, 3.24261164665, 8.24344348907,  3.2433078289, 0.0214055087417, -0.0132295256481, 0.021406032145, 0.0691637694836, 0.021406032145, 1.01761364937, 1.08720374107, -1.01245248318, -1.08579611778, 0.00259977369569, 0.00257794256322, 0.000700036354829, 1.01757788658, 0.932199954987, -1.0124219656, -0.930799901485,             0, -1.11022302463e-16,             0,             0, -0.00929161999375, 0.500641047955, 0.514499008656, 0.500662624836, 0.514505803585, 0.500632762909, 0.514492213726
         0.45, 0.0426807999611,             0, -0.0110508427024, -0.0110510382801, -0.0399207882583,             0, -0.0110498610884, -0.0110496655107, 0.0633994564414, 0.000759552814998,             0, -107.816246033, 246.302780151, -107.678489685, 246.506820679, -126.200828552, 21.1709632874, 128.868087769, 21.1901550293, 18964.8574219, 18964.8574219, 10797.7158203, 5399.33300781,  5398.3828125, 18985.3222656, 18985.3222656, 10809.1357422, 5404.09277344, 5405.04296875,             0, 0.00283279991709, -0.071856983006,             0,             0,             0,             0, -0.0725805237889, -0.071856983006, 0.00197899295017,             0,             0,             0,             0, 0.00062554870965, 0.000179193462827, 0.00197899457999, 0.00406773947179, 0.000179193317308, -0.00355123495683, 0.000179193317308, 2.72195410728, 2.72392058372,  2.7221558094, 2.72414016724, 8.72752475739, -0.0373208299279,             0, 0.0452897511423,             0, -0.92401266098, 69.6762390137,            70,  69.676322937, 8.72654151917, 3.72642731667, 8.72737216949, 3.72730088234, 8.72752475739, 8.72688484192,  3.7268640995, 8.72654151917, 3.72648954391, 8.72737216949, 3.72723865509, 0.0230376645923, -0.0142780952156, 0.0230378881097, 0.0683230012655, 0.0230378881097, 1.01785159111, 1.08729922771, -1.01221466064, -1.08570063114, 0.00283279991709, 0.00281618023291, 0.000797686865553, 1.01781606674, 0.932297587395, -1.01218366623, -0.930702209473,             0,             0, 1.11022302463e-16,             0, -0.0093059912324, 0.500631034374, 0.514488041401, 0.500648081303, 0.514490962029, 0.500627219677, 0.514485120773
        0.475, 0.0442459173501,             0, -0.0110696442425, -0.0110698277131, -0.0385452881455,             0, -0.0110687278211, -0.0110685443506, 0.0591390170157, 0.000641418679152,             0, -108.37046051, 264.537445068, -108.155441284, 264.939361572, -130.521148682, 21.5334663391, 125.347732544, 21.5322818756, 18980.5664062, 18980.5664062, 10776.2050781, 5388.12744141,   5388.078125, 18994.7402344, 18994.7402344, 10776.7958984, 5388.37353516, 5388.42285156,             0, 0.00307081313804, -0.071443207562,             0,             0,             0,             0, -0.0720825120807, -0.071443207562, 0.00155079970136,             0,             0,             0,             0, 0.000421830249252, 9.27108339965e-06, 0.00155080098193, 0.00410153204575, 9.2710761237e-06, -0.00353424437344, 9.2710761237e-06, 2.87285351753, 2.87518644333, 2.87307143211, 2.87542176247, 9.21133995056, -0.0399009734392,             0, 0.0428993701935,             0, -0.991793274879, 69.6648483276,            70, 69.6651077271, 9.21033859253, 4.21021747589, 9.21121406555, 4.21114969254, 9.21133995056, 9.21070384979, 4.21068334579, 9.21033859253, 4.21028423309, 9.21121406555, 4.21108293533, 0.0245704948902, -0.0153253944591, 0.0245705060661, 0.0674654915929, 0.0245705060661, 1.01809358597, 1.08740675449, -1.01197290421, -1.08559310436, 0.00307081313804, 0.00305778137408, 0.000906759523787, 1.01805770397, 0.932406663895,  -1.011942029, -0.930593132973,             0,             0,             0,             0, -0.00932691060007, 0.500618159771, 0.514501810074, 0.500632047653, 0.514501929283, 0.500617623329, 0.51450163126
          0.5, 0.0457394309342,             0, -0.0109484242275, -0.0109485909343, -0.0372340902686,             0, -0.0109475897625, -0.0109474230558, 0.0544421933591, 0.000498057808727,             0, -109.071144104, 283.824554443, -108.810897827, 284.418518066, -135.070632935, 21.3765583038, 121.590049744, 21.3667449951, 18995.9550781, 18995.9550781, 10724.8496094, 5362.26220703, 5362.58691406, 19007.3632812, 19007.3632812, 10720.9433594, 5360.63427734, 5360.30957031,             0, 0.00331465480849, -0.0707425102592,             0,             0,             0,             0, -0.0712679922581, -0.0707425102592, 0.00142750772648,             0,             0,             0,             0, 0.000320530234603, -6.12825533608e-05, 0.00142750877421, 0.00422811647877, -6.12825097051e-05, -0.00342329405248, -6.12825097051e-05, 3.02372837067, 3.02645039558,  3.0239610672, 3.02670073509, 9.69507312775, -0.0423798523843,             0, 0.0406028851867,             0, -1.05749964714,  69.654006958,            70, 69.6543273926,  9.6940574646, 4.69393062592, 9.69497489929, 4.69491624832, 9.69507312775,  9.6944437027,  4.6944231987,  9.6940574646, 4.69400072098, 9.69497489929, 4.69484615326, 0.0259910523891, -0.0163836106658, 0.0259909760207, 0.0665897428989, 0.0259909760207, 1.01833951473, 1.08752727509, -1.01172709465, -1.08547246456, 0.00331465480849, 0.00330268684775, 0.00102794065606, 1.01830255985, 0.932527840137, -1.01169717312, -0.93047195673, 1.11022302463e-16,             0, 1.11022302463e-16,             0, -0.00935141742229, 0.500603854656, 0.514529109001, 0.500616371632, 0.514528155327, 0.500604748726, 0.51453012228
        0.525, 0.0469872429967,             0, -0.0108592072502, -0.0108593571931, -0.0361741520464,             0, -0.0108584556729, -0.0108583047986, 0.0494159571826, 0.000355447235052,             0, -109.78036499, 304.352111816, -109.496986389,  305.10333252, -139.485046387,  21.104549408, 117.961700439, 21.0976409912, 19010.8261719, 19010.8261719, 10682.6630859, 5341.22412109, 5341.43847656, 19022.5644531, 19022.5644531, 10680.0859375, 5340.15039062, 5339.93603516,             0, 0.00356274680234, -0.0700808390975,             0,             0,             0,             0, -0.070489436388, -0.0700808390975, 0.00158555852249,             0,             0,             0,             0, 0.000309243623633, -4.04313432227e-05, 0.00158555968665, 0.00443503540009, -4.04313141189e-05, -0.00323254498653, -4.04313141189e-05, 3.17458057404, 3.17771601677, 3.17482733727, 3.17798066139, 10.1787347794, -0.0447542890906,             0, 0.0384164042771,             0, -1.12070477009, 69.6437454224,            70, 69.6439819336, 10.1777048111,  5.1775727272, 10.1786613464, 5.17860794067, 10.1787347794, 10.1781101227, 5.17809009552, 10.1777048111, 5.17764663696, 10.1786613464, 5.17853403091, 0.0272899009287, -0.0174589958042, 0.0272898506373, 0.0657023787498, 0.0272898506373, 1.01858818531, 1.08766031265, -1.01147854328, -1.0853395462, 0.00356274680234, 0.00354951713234, 0.00116074585821, 1.01854944229, 0.932660639286, -1.01145029068, -0.930339157581,             0,             0,             0,             0, -0.00937798246741, 0.500588536263, 0.514550328255, 0.500601172447, 0.514549672604, 0.500589191914, 0.514550983906
         0.55, 0.0479010008276,             0, -0.0108671560884, -0.0108672901988, -0.0354517810047,             0, -0.0108664836735, -0.010866349563, 0.0441216789186, 0.000236503372435,             0, -110.367660522, 326.030944824, -110.070976257, 326.876708984, -143.374099731,  21.013633728, 114.846580505, 21.0150947571, 19024.5878906, 19024.5878906, 10679.7402344, 5339.93505859, 5339.80517578, 19038.2949219, 19038.2949219, 10681.3046875, 5340.58740234, 5340.71728516,             0, 0.00381176406518, -0.0697358846664,             0,             0,             0,             0, -0.0700491666794, -0.0697358846664, 0.00189956708346,             0,             0,             0,             0, 0.000346309359884, 2.45488718065e-05, 0.00189956848044, 0.00468019209802, 2.45488536166e-05, -0.00300435116515, 2.45488536166e-05, 3.32541227341, 3.32898664474, 3.32567167282, 3.32926392555, 10.6623315811, -0.0470167547464,             0, 0.0363454408944,             0, -1.18081533909, 69.6341018677,            70, 69.6341629028, 10.6612882614, 5.66115093231, 10.6622781754, 5.66223049164, 10.6623315811, 10.6617107391, 5.66169071198, 10.6612882614, 5.66122817993, 10.6622781754, 5.66215324402, 0.0284596644342, -0.018551427871, 0.0284596942365, 0.0648014768958, 0.0284596942365, 1.01883673668, 1.08780395985, -1.01123011112, -1.0851957798, 0.00381176406518, 0.00379598443396, 0.00130391831044, 1.01879584789, 0.932803809643, -1.01120388508, -0.930195987225,             0,             0,             0,             0, -0.00940404925495, 0.500573456287, 0.514550745487, 0.500587165356, 0.51455116272, 0.500573158264, 0.514550328255
        0.575, 0.0485066175461,             0, -0.0109516512603, -0.0109517695382, -0.0350164920092,             0, -0.0109510589391, -0.0109509406611, 0.038578055799, 0.000150977110025,             0, -110.780464172, 348.374084473, -110.469314575, 349.238372803, -146.484100342, 21.1708278656, 112.446327209, 21.1787376404, 19034.8789062, 19034.8789062, 10717.2480469, 5358.82080078, 5358.42675781,  19050.484375,  19050.484375, 10721.9853516, 5360.79589844, 5361.18994141,             0, 0.0040579228662, -0.0697919130325,             0,             0,             0,             0, -0.0700392797589, -0.0697919130325, 0.00220905104652,             0,             0,             0,             0, 0.000382302940125, 7.43448836147e-05, 0.00220905267633, 0.00491332262754, 7.4344825407e-05, -0.00278685498051, 7.4344825407e-05, 3.47622489929, 3.48026299477,  3.4764957428, 3.48055171967, 11.1458711624, -0.0491567850113,             0, 0.0343758873641,             0, -1.23720061779, 69.6251068115,            70, 69.6250076294, 11.1448125839, 6.14467048645, 11.1458320618, 6.14578914642, 11.1458711624, 11.1452493668, 6.14522981644, 11.1448125839, 6.14475011826, 11.1458320618, 6.14570903778, 0.0294939056039, -0.0196569319814, 0.0294939968735, 0.0638664215803, 0.0294939968735, 1.01908242702, 1.08795654774, -1.01098453999, -1.0850430727, 0.0040579228662, 0.00403962936252, 0.00145606370643, 1.01903951168, 0.932955920696, -1.01096022129, -0.930043816566,             0,             0,             0,             0, -0.0094244517386, 0.500561952591, 0.514530837536, 0.500576674938, 0.514532029629, 0.500560700893, 0.514529585838
          0.6, 0.0489132516086,             0, -0.0110006090254, -0.0110007105395, -0.0347224362195,             0, -0.0110001033172, -0.0110000027344, 0.0328070260584, 9.23302286537e-05,             0, -111.059494019, 370.624511719, -110.728218079, 371.452789307, -148.78062439, 21.4032440186, 110.694068909, 21.4105739594, 19038.0390625, 19038.0390625, 10769.0654297, 5384.71289062, 5384.35302734, 19054.1894531, 19054.1894531, 10773.3945312, 5386.51708984, 5386.87744141,             0, 0.00429824879393, -0.0701276957989,             0,             0,             0,             0, -0.0703267678618, -0.0701276957989, 0.00238743517548,             0,             0,             0,             0, 0.000380321172997, 6.79193253745e-05, 0.00238743680529, 0.00509646022692, 6.79192744428e-05, -0.00261444970965, 6.79192744428e-05, 3.62702012062, 3.63154578209, 3.62730097771, 3.63184428215, 11.6293554306, -0.0511635951698,             0, 0.0324818007648,             0, -1.28933942318, 69.6167678833,            70, 69.6165924072, 11.6282815933, 6.62813472748, 11.6293258667, 6.62928724289, 11.6293554306, 11.6287307739, 6.62871074677, 11.6282815933, 6.62821674347, 11.6293258667, 6.62920475006, 0.030386660248, -0.020770734176, 0.0303867422044, 0.0628652870655, 0.0303867422044, 1.01932287216, 1.08811664581, -1.01074409485, -1.08488309383, 0.00429824879393, 0.0042785233818, 0.0016161914682,  1.0192784071, 0.933116078377, -1.01072132587, -0.929883658886,             0,             0, 1.11022302463e-16,             0, -0.00943229068071, 0.500558435917, 0.514504492283, 0.500573456287, 0.514505565166, 0.500556945801, 0.514503359795
        0.625, 0.0492537394166,             0, -0.0109102595598, -0.0109103415161, -0.0344100818038,             0, -0.0109098497778, -0.0109097678214, 0.0268428847194, 4.42847740487e-05,             0, -111.296569824, 392.107116699, -110.94026947, 392.880706787, -150.429229736, 21.4509372711, 109.314926147,  21.449131012, 19031.0507812, 19031.0507812, 10802.2177734, 5401.09277344, 5401.12451172,  19045.921875,  19045.921875, 10801.8369141, 5400.93457031, 5400.90283203,             0, 0.00453128991649, -0.0705329850316,             0,             0,             0,             0, -0.0706802904606, -0.0705329850316, 0.00238347565755,             0,             0,             0,             0, 0.000326676934492, -5.96933841734e-06, 0.0023834775202, 0.00521485274658, -5.96933386987e-06, -0.00249909074046, -5.96933386987e-06, 3.77779865265, 3.78283524513,  3.7780880928, 3.78314208984, 12.1127853394, -0.0530276037753,             0, 0.0306460373104,             0, -1.33691394329, 69.6090774536,            70, 69.6089172363, 12.1116981506, 7.11154651642, 12.1127624512, 7.11272716522, 12.1127853394,  12.112156868, 7.11213684082, 12.1116981506,  7.1116309166, 12.1127624512, 7.11264324188, 0.0311326123774, -0.0218886118382, 0.0311326049268, 0.0617755949497, 0.0311326049268, 1.01955699921, 1.08828365803, -1.0105099678, -1.08471596241, 0.00453128991649, 0.00451163575053, 0.00178392452653, 1.01951146126, 0.933283805847, -1.0104881525, -0.929715931416,             0,             0, -1.11022302463e-16,             0, -0.00942197535187, 0.500566244125, 0.514488756657, 0.50058054924, 0.514488637447, 0.50056540966, 0.514488875866
         0.65, 0.0496318265796,             0, -0.010609222576, -0.0106092840433, -0.0339778140187,             0, -0.0106089143082, -0.0106088519096, 0.0207466762513, -1.03958573163e-05,             0, -111.563606262, 412.528533936, -111.181144714, 413.264251709, -151.701431274, 21.1010837555,  107.98298645, 21.0838890076,     19013.625,     19013.625, 10799.9228516, 5399.61376953, 5400.30859375, 19025.6835938, 19025.6835938, 10791.5732422, 5396.13378906, 5395.43945312,             0, 0.00475709466264, -0.07086327672,             0,             0,             0,             0, -0.0709409564734, -0.07086327672, 0.00222422392108,             0,             0,             0,             0, 0.000229843528359, -0.000131009583129, 0.00222422555089, 0.00527609093115, -0.000131009481265, -0.00243315007538, -0.000131009481265, 3.92856168747, 3.93413209915, 3.92885804176, 3.93444609642, 12.5961618423, -0.05474082008,             0, 0.0288786832243,             0, -1.37982332706, 69.6020126343,            70,  69.601890564, 12.5950651169, 7.59490966797, 12.5961437225, 7.59611272812, 12.5961618423, 12.5955314636, 7.59551095963, 12.5950651169, 7.59499549866, 12.5961437225, 7.59602689743, 0.0317276716232, -0.0230066664517, 0.0317275077105, 0.0606033653021, 0.0317275077105, 1.01978468895, 1.08845806122, -1.01028227806, -1.08454167843, 0.00475709466264, 0.0047387923114, 0.00195938185789, 1.01973867416, 0.933459222317, -1.01026105881, -0.929540455341,             0,             0,             0,             0, -0.00939251016825, 0.500585436821, 0.514491975307, 0.500598311424, 0.51448982954, 0.500586032867, 0.514494121075
        0.675, 0.0500898770988,             0, -0.01009041816, -0.0100904591382, -0.0334174633026,             0, -0.0100902123377, -0.0100901704282, 0.0145894140005, -8.1960533862e-05,             0, -111.869041443, 432.039093018, -111.464073181, 432.769378662, -152.865814209, 20.2946128845,  106.47228241,   20.26014328, 18988.8847656, 18988.8847656, 10771.8681641, 5385.19335938, 5386.67480469,   18997.46875,   18997.46875, 10754.0595703, 5377.77050781,  5376.2890625,             0, 0.00497666327283, -0.0711236745119,             0,             0,             0,             0, -0.0711154565215, -0.0711236745119, 0.00198898091912,             0,             0,             0,             0, 0.000115157039545, -0.000279432861134, 0.00198898231611, 0.00530480640009, -0.000279432628304, -0.00239516235888, -0.000279432628304, 4.07931041718,  4.0854382515,  4.0796122551, 4.08575820923, 13.0794906616, -0.0562956221402,             0, 0.027221577242,             0, -1.4181278944, 69.5955352783,            70, 69.5954208374, 13.0783863068, 8.07822799683, 13.0794754028, 8.07944774628, 13.0794906616, 13.0788583755, 8.07883739471, 13.0783863068, 8.07831478119, 13.0794754028, 8.07936096191, 0.032169405371, -0.0241196770221, 0.032169058919, 0.0593880303204, 0.032169058919, 1.02000653744, 1.08864021301, -1.01006042957, -1.08435952663, 0.00497666327283, 0.00496033718809, 0.00214286730625, 1.01996016502, 0.933642745018, -1.01003944874, -0.929356992245,             0,             0,             0,             0, -0.00934877526015, 0.50061249733, 0.514508664608, 0.500623583794, 0.514504134655, 0.500614821911, 0.514513254166
          0.7, 0.0506040118635,             0, -0.00937640015036, -0.0093764225021, -0.0328032560647,             0, -0.00937628932297, -0.00937626697123, 0.0084498571232, -0.000171898806002,             0, -112.161186218, 451.031677246, -111.741714478, 451.800537109, -154.092895508, 19.0877285004, 104.745750427, 19.0391731262, 18962.2480469, 18962.2480469, 10745.3720703, 5371.57714844, 5373.79541016, 18967.6894531, 18967.6894531, 10718.7158203, 5360.46679688, 5358.24902344,             0, 0.00519119482487, -0.0714314579964,             0,             0,             0,             0, -0.0713368877769, -0.0714314579964, 0.00177032256033,             0,             0,             0,             0, 1.15944449135e-05, -0.000418275536504, 0.0017703238409, 0.00532938819379, -0.000418275187258, -0.00236157909967, -0.000418275187258, 4.23004627228, 4.23675441742,  4.2303519249, 4.23707962036, 13.5627775192, -0.0576842464507,             0, 0.0257328506559,             0, -1.45196127892, 69.5896224976,            70, 69.5894546509, 13.5616674423, 8.56150627136, 13.5627622604,  8.5627374649, 13.5627775192, 13.5621423721,  8.5621213913, 13.5616674423,  8.5615940094, 13.5627622604, 8.56264972687, 0.0324572809041, -0.0252203661948, 0.0324567593634, 0.0581872053444, 0.0324567593634, 1.02022314072, 1.08883059025, -1.00984370708, -1.08416903019, 0.00519119482487, 0.00517670344561, 0.00233456632122, 1.02017652988, 0.933834433556, -1.00982308388, -0.929165303707,             0,             0, 1.11022302463e-16,             0, -0.00929987896234, 0.500641286373, 0.514524459839, 0.500650763512, 0.514517664909, 0.50064522028, 0.514531254768
        0.725, 0.0511047393084,             0, -0.00854166131467, -0.0085416669026, -0.0322438105941,             0, -0.00854163244367, -0.00854162685573, 0.00239246687852, -0.000273706333246,             0, -112.383346558,  469.80657959, -111.959251404, 470.648742676, -155.411987305, 17.6166362762, 102.940727234, 17.5604343414, 18939.1015625, 18939.1015625, 10745.5595703, 5371.39404297, 5374.16552734, 18942.4628906, 18942.4628906, 10712.2480469, 5357.50976562, 5354.73828125,             0, 0.00540141947567, -0.0718932673335,             0,             0,             0,             0, -0.071728952229, -0.0718932673335, 0.00163755286485,             0,             0,             0,             0, -5.96358077019e-05, -0.000522695016116, 0.00163755414542, 0.00537043390796, -0.000522694608662, -0.00231559760869, -0.000522694608662, 4.38077116013, 4.38808202744, 4.38107872009, 4.38841056824, 14.0460281372, -0.0588986426592,             0, 0.0244597103447,             0, -1.4814453125, 69.5842666626,            70, 69.5840301514, 14.0449142456, 9.04475021362,   14.04600811, 9.04598617554, 14.0460281372, 14.0453882217, 9.04536819458, 14.0449142456, 9.04483795166,   14.04600811, 9.04589748383, 0.032592561096, -0.0262993928045, 0.0325919054449, 0.057049382478, 0.0325919054449, 1.02043485641, 1.08902943134, -1.00963199139, -1.08397018909, 0.00540141947567, 0.00538804894313, 0.00253430637531, 1.02038788795, 0.93403416872, -1.00961172581, -0.928965568542,             0,             0,             0,             0, -0.00925549864769, 0.500665962696, 0.514526069164, 0.500674366951,  0.5145175457, 0.500670969486, 0.514534592628
         0.75, 0.0515119470656,             0, -0.00766432052478, -0.00766431260854, -0.0318284966052,             0, -0.00766435824335, -0.00766436615959, -0.00352824665606, -0.000377284130082,             0, -112.523323059, 488.305358887, -112.104278564, 489.223999023,  -156.7265625, 16.0200748444,  101.28074646, 15.9624824524,   18922.78125,   18922.78125, 10777.2841797, 5387.08300781, 5390.20117188,  18925.359375,  18925.359375, 10739.8037109,  5371.4609375, 5368.34277344,             0, 0.00560724595562, -0.0724942311645,             0,             0,             0,             0, -0.0722832381725, -0.0724942311645, 0.00161516002845,             0,             0,             0,             0, -9.16142307688e-05, -0.000588112219702, 0.00161516142543, 0.00543418433517, -0.000588111754041, -0.00225182273425, -0.000588111754041, 4.53148555756, 4.53942012787,  4.5317940712, 4.53975152969, 14.5292453766, -0.0599314533174,             0, 0.0234187822789,             0, -1.50663805008,  69.579460144,            70, 69.5791931152, 14.5281276703, 9.52796173096, 14.5292186737, 9.52919769287, 14.5292453766, 14.5286006927, 9.52857971191, 14.5281276703, 9.52805042267, 14.5292186737, 9.52910995483, 0.032578010112, -0.0273466166109, 0.032577265054, 0.055993963033, 0.032577265054, 1.02064144611, 1.08923602104, -1.00942540169, -1.0837635994, 0.00560724595562, 0.00559408124536, 0.00274146068841, 1.02059388161, 0.934241294861, -1.00940573215, -0.928758382797, 1.11022302463e-16,             0,             0,             0, -0.00922239478678, 0.500683009624, 0.514510929585, 0.500691056252, 0.514501392841, 0.500688433647, 0.514520525932
        0.775, 0.0517680384219,             0, -0.00678924005479, -0.00678922235966, -0.0315937884152,             0, -0.00678932853043, -0.0067893457599, -0.00926109403372, -0.000473772874102,             0, -112.632217407, 506.177764893, -112.227088928,  507.14151001, -157.879440308, 14.3833370209, 99.9651947021, 14.3281917572,   18913.96875,   18913.96875, 10822.4765625, 5409.57519531, 5412.90185547, 18916.8359375, 18916.8359375, 10782.4941406, 5392.91064453, 5389.58398438,             0, 0.00580782443285, -0.0730785727501,             0,             0,             0,             0, -0.072835251689, -0.0730785727501, 0.00168349477462,             0,             0,             0,             0, -9.09077207325e-05, -0.000627371773589, 0.00168349617161, 0.00551343010738, -0.00062737124972, -0.002175278496, -0.00062737124972, 4.68219041824, 4.69076728821, 4.68249845505, 4.69110012054, 15.0124311447, -0.0607775449753,             0, 0.022594043985,             0, -1.52753520012, 69.5752029419,            70, 69.5749893188, 15.0113134384, 10.0111455917, 15.0123949051, 10.0123748779, 15.0124311447, 15.0117816925, 10.0117607117, 15.0113134384, 10.0112333298, 15.0123949051, 10.0122871399, 0.0324176847935, -0.0283528808504, 0.0324168838561, 0.055008970201, 0.0324168838561, 1.02084207535, 1.08944916725, -1.00922465324, -1.08355045319, 0.00580782443285, 0.00579411257058, 0.0029550306499, 1.02079391479, 0.934454858303, -1.00920569897, -0.928544819355,             0, -1.11022302463e-16,             0,             0, -0.0092029152438, 0.500691831112, 0.514488518238, 0.500700056553, 0.514478325844, 0.500697135925, 0.514498710632
          0.8, 0.0518534108996,             0, -0.00593737699091, -0.00593735231087, -0.0315247252584,             0, -0.00593749992549, -0.00593752413988, -0.0147605556995, -0.000558087427635,             0, -112.800254822, 523.095581055, -112.415107727, 524.059509277, -158.727020264,  12.733833313, 99.0994720459, 12.6827478409, 18911.5878906, 18911.5878906, 10853.9589844, 5425.23974609, 5428.71923828, 18915.3046875, 18915.3046875, 10812.1396484, 5407.80908203, 5404.33007812,             0, 0.00600188644603, -0.0734354481101,             0,             0,             0,             0, -0.0731559023261, -0.0734354481101, 0.00179529329762,             0,             0,             0,             0, -7.23068369552e-05, -0.000656203716062, 0.00179529481102, 0.00559296272695, -0.000656203192193, -0.00209765345789, -0.000656203192193,  4.8328871727, 4.84212350845, 4.83319282532, 4.84245634079, 15.4955854416, -0.0614350959659,             0, 0.0219527352601,             0, -1.54411220551, 69.5714645386,            70, 69.5713806152, 15.4944705963,  10.494301796, 15.4955396652, 10.4955205917, 15.4955854416, 15.4949321747, 10.4949111938, 15.4944705963, 10.4943885803, 15.4955396652, 10.4954328537, 0.0321168713272, -0.0293111093342, 0.0321160294116, 0.0540669336915, 0.0321160294116, 1.02103602886, 1.08966779709, -1.00903081894, -1.08333194256, 0.00600188644603, 0.00598726747558, 0.00317383278161, 1.02098715305, 0.934673666954, -1.00901257992, -0.928326010704, -1.11022302463e-16,             0,             0,             0, -0.00919593777508, 0.50069385767, 0.514472961426, 0.500702440739, 0.514462292194, 0.500698685646, 0.514483630657
        0.825, 0.0517857596278,             0, -0.0051025361754, -0.0051025073044, -0.0315789654851,             0, -0.00510267913342, -0.00510270753875, -0.0199857763946, -0.000628643843811,             0, -113.097320557, 539.027099609, -112.735336304, 539.948364258, -159.192565918, 11.0797815323, 98.6863021851, 11.0328292847, 18914.2910156, 18914.2910156,  10854.546875, 5425.44287109, 5429.10449219, 18918.8730469, 18918.8730469, 10810.5351562, 5407.09863281, 5403.43701172,             0, 0.00618817284703, -0.0734308734536,             0,             0,             0,             0, -0.0730962529778, -0.0734308734536, 0.00189781980589,             0,             0,             0,             0, -5.17476692039e-05, -0.000690594024491, 0.00189782131929, 0.00565686030313, -0.000690593442414, -0.00203237798996, -0.000690593442414, 4.98357582092, 4.99348926544, 4.98387813568,  4.9938211441, 15.9787092209, -0.0619061216712,             0, 0.0214681737125,             0, -1.55637156963, 69.5682067871,            70, 69.5682830811,  15.977602005, 10.9774341583, 15.9786539078,  10.978635788, 15.9787092209,  15.978055954, 10.9780349731,  15.977602005,  10.977519989, 15.9786539078, 10.9785499573, 0.0316819325089, -0.0302169919014, 0.0316810458899, 0.0531475171447, 0.0316810458899, 1.02122199535, 1.08989024162, -1.00884485245, -1.08310937881, 0.00618817284703, 0.00617272220552, 0.00339666567743,  1.0211725235, 0.934896528721, -1.00882709026, -0.928103208542,             0,             0,             0,             0, -0.00919914338738, 0.500690639019, 0.514473199844, 0.500699698925, 0.514461994171, 0.500695049763, 0.514484405518
         0.85, 0.051604334265,             0, -0.00426712771878, -0.00426709791645, -0.0317166782916,             0, -0.00426727673039, -0.00426730653271, -0.0249064657837, -0.000686742714606,             0, -113.530578613, 554.285400391, -113.191574097, 555.138183594, -159.282058716, 9.41717529297, 98.6634597778, 9.37403202057, 18921.4921875, 18921.4921875, 10828.1904297,  5412.1328125, 5416.05761719, 18926.5273438, 18926.5273438,  10781.015625, 5392.47021484, 5388.54492188,             0, 0.00636578211561, -0.0730935707688,             0,             0,             0,             0, -0.0726828500628, -0.0730935707688, 0.00195209658705,             0,             0,             0,             0, -4.14833739342e-05, -0.000740236602724, 0.00195209810045, 0.00569343194366, -0.000740236020647, -0.0019911294803, -0.000740236020647, 5.13425731659, 5.14486646652, 5.13455486298, 5.14519643784, 16.4618053436, -0.0621964968741,             0, 0.0211339052767,             0, -1.56438279152, 69.5653991699,            70, 69.5655899048, 16.4607124329, 11.4605445862, 16.4617443085, 11.4617242813, 16.4618053436, 16.4611549377, 11.4611339569, 16.4607124329, 11.4606285095, 16.4617443085,  11.461640358, 0.0311201401055, -0.0310691446066, 0.0311191957444, 0.052251521498, 0.0311191957444, 1.02139949799, 1.09011566639, -1.00866734982, -1.08288407326, 0.00636578211561, 0.00634989701211, 0.00362245296128, 1.02134978771, 0.935122311115, -1.00864994526, -0.927877426147,             0,             0,             0,             0, -0.00921075604856, 0.500683069229, 0.514487445354, 0.500692367554, 0.514475405216, 0.500687241554, 0.514499485493
        0.875, 0.0513691678643,             0, -0.00340293627232, -0.00340290809982, -0.0318954475224,             0, -0.00340307713486, -0.00340310530737, -0.029500996694, -0.000735525332857,             0, -114.034881592,  569.35333252, -113.718009949, 570.126403809, -159.074127197, 7.73938846588, 98.9366149902, 7.69992303848, 18933.0058594, 18933.0058594, 10796.3867188, 5396.04003906, 5400.34667969, 18937.9355469, 18937.9355469, 10744.6240234, 5374.46533203, 5370.15869141,             0, 0.00653438502923, -0.0725998058915,             0,             0,             0,             0, -0.0721038877964, -0.0725998058915, 0.00194572727196,             0,             0,             0,             0, -4.58802423964e-05, -0.000812219339423, 0.00194572878536, 0.00569946318865, -0.000812218699139, -0.0019790250808, -0.000812218699139, 5.28493356705, 5.29625701904, 5.28522443771,  5.2965836525, 16.9448814392, -0.0623165220022,             0, 0.020957287401,             0, -1.56829988956, 69.5630264282,            70, 69.5632400513, 16.9438056946, 11.9436378479, 16.9448108673, 11.9447917938, 16.9448814392,  16.944234848, 11.9442148209, 16.9438056946, 11.9437198639, 16.9448108673, 11.9447097778, 0.030439350754, -0.0318700000644, 0.0304383225739, 0.0513941496611, 0.0304383225739, 1.02156817913,  1.0903428793, -1.00849854946, -1.08265686035, 0.00653438502923, 0.00651856511831, 0.0038503119722, 1.02151846886, 0.935350179672, -1.00848126411, -0.92764955759, -1.11022302463e-16,             0,             0,             0, -0.00922965910286, 0.500671386719, 0.514504849911, 0.500680625439, 0.51449161768, 0.500675559044, 0.514518022537
